Site ID,Location,Number of private cycles,Number of cycle hire bikes,Total cycles,Easting,Northing,lat,lng,geometry,LSOA11CD,LSOA11NM,accounting,airport,amusement park,aquarium,art gallery,atm,bakery,bank,bar,beauty salon,bicycle store,book store,bowling alley,bus station,cafe,campground,car dealer,car rental,car repair,car wash,casino,cemetery,church,city hall,clothing store,convenience store,courthouse,dentist,department store,doctor,drugstore,electrician,electronics store,embassy,fire station,florist,funeral home,furniture store,gas station,gym,hair care,hardware store,hindu temple,home goods store,hospital,insurance agency,jewelry store,laundry,lawyer,library,light rail station,liquor store,local government office,locksmith,lodging,meal delivery,meal takeaway,mosque,movie rental,movie theater,moving company,museum,night club,painter,park,parking,pet store,pharmacy,physiotherapist,plumber,police,post office,primary school,real estate agency,restaurant,roofing contractor,rv park,school,secondary school,shoe store,shopping mall,spa,stadium,storage,store,subway station,supermarket,synagogue,taxi stand,tourist attraction,train station,transit station,travel agency,university,veterinary care,zoo,person,bicycle,car,motorcycle,bus,train,truck,traffic light,fire hydrant,stop sign,parking meter,bench,dog
INNCY001,Grove Road,898.0,29.5,927.5,536005.2346,183224.9317,51.53155876,-0.040640409,POINT (-0.0406404089449611 51.53155875667294),E01004234,Tower Hamlets 003E,4,,,,,,,1,6,,,,,28,,,,,,,,,,1,,,,,,,,,,,,,,,,3,,,,,,,,3,,,,,,,,,,,,0,,1,0,,9,3,,,,,,,,,27,,,10,,,0,,,,,,5,,,,1,30,,0,,,,,,,,,,,,,,,
INNCY002,Lea Bridge Road,1374.0,0.5,1374.5,535642.254,186677.1935,51.56266855,-0.044540406,POINT (-0.0445404060729519 51.56266855287201),E01004422,Waltham Forest 022A,0,,,,,,,0,0,,,,,18,,,,,,,,,,0,,,,,,,,,,,,,,,,0,,,,,,,,0,,,,,,,,,,,,0,,0,2,,5,6,,,,,,,,,0,,,5,,,0,,,,,,0,,,,1,25,,0,,,6.0,,12.0,,3.0,,3.0,1.0,,,,1.0,
INNCY003,Burdett Road (south of Limehouse Cut),688.0,53.0,741.0,536945.0,181263.0,51.5137017,-0.027862524,POINT (-0.0278625244271789 51.51370170197896),E01004252,Tower Hamlets 024A,2,,,,,,,3,5,,,,,25,,,,,,,,,,1,,,,,,,,,,,,,,,,9,,,,,,,,5,,,,,,,,,,,,1,,4,0,,9,4,,,,,,,,,25,,,18,,,0,,,,,,8,,,,2,35,,1,,,4.0,,16.0,,1.0,,3.0,1.0,,,,,
INNCY003,Burdett Road (south of Limehouse Cut),688.0,53.0,741.0,536945.0,181263.0,51.5137017,-0.027862524,POINT (-0.0278625244271789 51.51370170197896),E01004252,Tower Hamlets 024A,2,,,,,,,3,5,,,,,25,,,,,,,,,,1,,,,,,,,,,,,,,,,9,,,,,,,,5,,,,,,,,,,,,1,,4,0,,9,4,,,,,,,,,25,,,18,,,0,,,,,,8,,,,2,35,,1,,,4.0,,16.0,,1.0,,3.0,1.0,,,,,
INNCY004,Seven Sisters Road (Finsbury Park),1239.0,15.0,1254.0,531355.3829,186695.0883,51.56384317,-0.106341679,POINT (-0.1063416792390218 51.56384316910162),E01002734,Islington 005B,8,,,,,,,8,16,,,,,29,,,,,,,,,,0,,,,,,,,,,,,,,,,5,,,,,,,,3,,,,,,,,,,,,1,,1,2,,5,12,,,,,,,,,60,,,14,,,3,,,,,,17,,,,2,36,,1,,,4.0,,23.0,,1.0,,7.0,,,,,,
INNCY005,Seven Sisters Road,582.5,4.0,586.5,532769.8561,188001.3644,51.57525089,-0.085454269,POINT (-0.0854542685766711 51.57525088842365),E01002056,Haringey 032C,5,,,,,,,2,2,,,,,29,,,,,,,,,,0,,,,,,,,,,,,,,,,3,,,,,,,,3,,,,,,,,,,,,0,,0,2,,4,0,,,,,,,,,6,,,17,,,0,,,,,,11,,,,2,27,,0,,,,,11.0,,1.0,,1.0,,,,,,
INNCY006,Hornsey Rise,505.0,1.0,506.0,530080.34,187472.06,51.57112071,-0.124438629,POINT (-0.1244386285230951 51.5711207147171),E01002758,Islington 001C,4,,,,,,,3,3,,,,,32,,,,,,,,,,0,,,,,,,,,,,,,,,,6,,,,,,,,3,,,,,,,,,,,,0,,0,3,,10,0,,,,,,,,,18,,,16,,,0,,,,,,11,,,,1,40,,0,,,2.0,1.0,6.0,,,,,,,,,,
INNCY007,York Way,395.0,12.0,407.0,530305.0611,183746.5623,51.53758952,-0.122576999,POINT (-0.1225769989577854 51.53758951655661),E01002709,Islington 019C,7,,,,,,,6,20,,,,,20,,,,,,,,,,1,,,,,,,,,,,,,,,,6,,,,,,,,5,,,,,,,,,,,,2,,2,3,,9,8,,,,,,,,,53,,,15,,,3,,,,,,13,,,,4,29,,1,,,1.0,,3.0,,,,1.0,,,,,,
INNCY008,Well Street,624.5,13.5,638.0,535194.877,184187.5961,51.5404039,-0.051946511,POINT (-0.0519465113358448 51.540403901612535),E01001840,Hackney 022B,4,,,,,,,6,17,,,,,38,,,,,,,,,,3,,,,,,,,,,,,,,,,5,,,,,,,,2,,,,,,,,,,,,1,,3,2,,5,4,,,,,,,,,59,,,10,,,1,,,,,,17,,,,4,50,,1,,,1.0,,20.0,,,,,,,1.0,,,
INNCY009,Hackney Road,1054.0,40.0,1094.0,534597.9428,183233.2893,51.53197079,-0.060913221,POINT (-0.0609132206509826 51.53197079090984),E01004202,Tower Hamlets 005B,5,,,,,,,7,16,,,,,31,,,,,,,,,,1,,,,,,,,,,,,,,,,2,,,,,,,,5,,,,,,,,,,,,0,,4,4,,9,2,,,,,,,,,53,,,24,,,2,,,,,,15,,,,2,40,,0,,,3.0,,15.0,,3.0,1.0,,,,,,,
INNCY010,Tower Bridge,2479.0,196.0,2675.0,533697.7553,180336.7584,51.50615523,-0.074981079,POINT (-0.0749810785935671 51.50615522721505),0,0,14,,,,,,,10,48,,,,,27,,,,,,,,,,14,,,,,,,,,,,,,,,,15,,,,,,,,2,,,,,,,,,,,,0,,8,1,,8,17,,,,,,,,,60,,,8,,,4,,,,,,10,,,,5,19,,2,,,51.0,,,,,,,,,,,3.0,
INNCY011,Westferry Road,746.0,45.0,791.0,537205.0312,179057.2546,51.4938176,-0.02497482,POINT (-0.0249748202666481 51.49381759982517),E01004280,Tower Hamlets 032A,6,,,,,,,4,4,,,,,17,,,,,,,,,,0,,,,,,,,,,,,,,,,4,,,,,,,,5,,,,,,,,,,,,0,,0,1,,4,5,,,,,,,,,13,,,9,,,0,,,,,,9,,,,3,26,,2,,,2.0,,,,,,,3.0,,,,,
INNCY012,Dulwich Road,373.5,11.0,384.5,531402.792,174615.1462,51.45527522,-0.110155735,POINT (-0.1101557351989022 51.45527521798101),E01003074,Lambeth 018E,7,,,,,,,9,24,,,,,38,,,,,,,,,,1,,,,,,,,,,,,,,,,4,,,,,,,,4,,,,,,,,,,,,1,,2,3,,5,9,,,,,,,,,32,,,12,,,0,,,,,,9,,,,1,39,,0,,,1.0,,23.0,,,,,,,1.0,,,1.0
INNCY013,Old Kent Road (New Cross Gate),570.5,2.0,572.5,535246.8456,177292.7197,51.47843237,-0.053839841,POINT (-0.0538398406583292 51.47843236959587),E01003302,Lewisham 003D,4,,,,,,,3,5,,,,,26,,,,,,,,,,0,,,,,,,,,,,,,,,,1,,,,,,,,2,,,,,,,,,,,,0,,0,1,,5,0,,,,,,,,,27,,,9,,,2,,,,,,8,,,,2,31,,0,,,,,12.0,,,,6.0,,,,,,
INNCY014,New Cross Road,672.0,1.0,673.0,537067.2892,176982.7385,51.47520906,-0.027762245,POINT (-0.0277622452127279 51.47520905665191),E01003304,Lewisham 039D,11,,,,,,,4,28,,,,,40,,,,,,,,,,0,,,,,,,,,,,,,,,,6,,,,,,,,5,,,,,,,,,,,,1,,1,3,,8,7,,,,,,,,,54,,,15,,,0,,,,,,19,,,,4,44,,3,,,13.0,,15.0,,2.0,,3.0,1.0,,,,,
INNCY015,Streatham High Road,457.5,5.0,462.5,530230.2042,172489.7046,51.43644511,-0.127804062,POINT (-0.1278040615281439 51.43644511438318),E01003117,Lambeth 029B,9,,,,,,,9,11,,,,,34,,,,,,,,,,0,,,,,,,,,,,,,,,,4,,,,,,,,4,,,,,,,,,,,,1,,0,1,,1,12,,,,,,,,,37,,,12,,,0,,,,,,13,,,,1,35,,1,,,16.0,,12.0,,2.0,,,,1.0,,,1.0,
INNCY016,Brixton Hill,1114.5,6.0,1120.5,530770.0166,174613.6666,51.4554083,-0.119258313,POINT (-0.1192583126717703 51.45540829820901),E01003018,Lambeth 020A,8,,,,,,,7,17,,,,,31,,,,,,,,,,1,,,,,,,,,,,,,,,,3,,,,,,,,6,,,,,,,,,,,,1,,2,2,,3,10,,,,,,,,,30,,,6,,,0,,,,,,10,,,,0,34,,0,,,1.0,,12.0,,,,1.0,,,,,,
INNCY017,Brixton Road,1484.5,88.0,1572.5,531192.7491,176321.7777,51.47066077,-0.112544349,POINT (-0.1125443494217408 51.47066076760935),E01003186,Lambeth 007D,7,,,,,,,5,8,,,,,32,,,,,,,,,,0,,,,,,,,,,,,,,,,5,,,,,,,,1,,,,,,,,,,,,0,,3,2,,8,13,,,,,,,,,14,,,13,,,0,,,,,,9,,,,3,35,,0,,,4.0,1.0,14.0,1.0,2.0,,,,,,,,
INNCY018,Stockwell Road,749.5,22.5,772.0,530831.1372,175940.6568,51.46731941,-0.117888582,POINT (-0.1178885816587296 51.46731941291494),E01003060,Lambeth 011E,13,,,,,,,14,31,,,,,37,,,,,,,,,,1,,,,,,,,,,,,,,,,9,,,,,,,,3,,,,,,,,,,,,2,,2,4,,6,14,,,,,,,,,60,,,14,,,1,,,,,,15,,,,4,39,,0,,,9.0,,5.0,2.0,2.0,,2.0,,,,,,
INNCY020,Peckham Rye,1032.5,1.5,1034.0,534437.3538,175952.5234,51.46658164,-0.065998767,POINT (-0.0659987667117833 51.46658164021736),E01004062,Southwark 025B,5,,,,,,,9,27,,,,,34,,,,,,,,,,0,,,,,,,,,,,,,,,,8,,,,,,,,1,,,,,,,,,,,,3,,0,1,,3,4,,,,,,,,,56,,,13,,,4,,,,,,13,,,,2,30,,0,,,,,13.0,,,,1.0,,,,,,
INNCY021,Kennigton Lane,329.5,52.5,382.0,531449.5662,178461.0053,51.48982558,-0.108053574,POINT (-0.1080535735216677 51.489825584227496),E01003106,Lambeth 003C,10,,,,,,,3,9,,,,,27,,,,,,,,,,0,,,,,,,,,,,,,,,,4,,,,,,,,4,,,,,,,,,,,,0,,3,0,,8,9,,,,,,,,,27,,,20,,,3,,,,,,6,,,,1,30,,1,,,4.0,,12.0,,,,1.0,,,,,,
INNCY022,New Kent Road,1633.5,75.0,1708.5,532247.9025,179001.9805,51.49450109,-0.096359004,POINT (-0.0963590044881953 51.49450108578792),E01032720,Southwark 009F,9,,,,,,,8,13,,,,,38,,,,,,,,,,2,,,,,,,,,,,,,,,,9,,,,,,,,8,,,,,,,,,,,,0,,1,3,,11,9,,,,,,,,,37,,,18,,,3,,,,,,18,,,,4,37,,4,,,2.0,1.0,6.0,,3.0,,1.0,,,,,,
INNCY023,Rotherhithe New Road,222.5,0.5,223.0,535073.048,178558.2875,51.48984664,-0.055857316,POINT (-0.0558573163959568 51.48984664094584),E01003986,Southwark 011A,6,,,,,,,5,1,,,,,29,,,,,,,,,,1,,,,,,,,,,,,,,,,3,,,,,,,,5,,,,,,,,,,,,0,,2,1,,5,8,,,,,,,,,12,,,11,,,1,,,,,,8,,,,3,35,,0,,,3.0,,8.0,,,,1.0,,,,,,
INNCY024,Norwood Road,902.5,2.5,905.0,532063.04,174181.5203,51.45122491,-0.100820346,POINT (-0.1008203461339204 51.451224914244975),E01004074,Southwark 031D,3,,,,,,,1,5,,,,,28,,,,,,,,,,0,,,,,,,,,,,,,,,,1,,,,,,,,0,,,,,,,,,,,,0,,0,1,,5,4,,,,,,,,,14,,,0,,,0,,,,,,9,,,,1,30,,0,,,,,13.0,,,,1.0,,,,,,
INNCY025,London Road,305.0,0.0,305.0,534755.003,173070.9982,51.44061166,-0.062525315,POINT (-0.0625253149946287 51.44061165807021),E01003257,Lewisham 028B,5,,,,,,,2,4,,,,,38,,,,,,,,,,0,,,,,,,,,,,,,,,,2,,,,,,,,1,,,,,,,,,,,,1,,2,0,,1,4,,,,,,,,,20,,,8,,,0,,,,,,4,,,,1,38,,0,,,3.0,,21.0,,,,,,1.0,,,,
INNCY026,Old Kent Road,999.0,9.0,1008.0,533968.721,178109.9658,51.48608033,-0.071923815,POINT (-0.0719238152090522 51.48608032750574),E01003964,Southwark 015A,4,,,,,,,2,2,,,,,23,,,,,,,,,,0,,,,,,,,,,,,,,,,4,,,,,,,,3,,,,,,,,,,,,1,,0,4,,5,7,,,,,,,,,25,,,16,,,0,,,,,,11,,,,0,30,,0,,,7.0,,15.0,,3.0,,5.0,,,,,,
INNCY027,Parkside High Street,315.0,0.0,315.0,523535.5361,171973.5123,51.43330395,-0.22424723,POINT (-0.2242472299650575 51.43330395488224),E01003465,Merton 002D,1,,,,,,,0,0,,,,,8,,,,,,,,,,0,,,,,,,,,,,,,,,,0,,,,,,,,0,,,,,,,,,,,,0,,1,0,,1,1,,,,,,,,,1,,,0,,,0,,,,,,0,,,,0,9,,0,,,2.0,,2.0,,,,,,1.0,1.0,,,
INNCY028,Upper Richmond Road,703.0,1.0,704.0,523111.2288,175297.9707,51.46327395,-0.229192516,POINT (-0.2291925161874115 51.46327395404226),E01004640,Wandsworth 011D,6,,,,,,,4,2,,,,,20,,,,,,,,,,0,,,,,,,,,,,,,,,,1,,,,,,,,6,,,,,,,,,,,,0,,1,0,,2,0,,,,,,,,,15,,,13,,,0,,,,,,4,,,,0,13,,0,,,5.0,2.0,9.0,,,,,,,,,,
INNCY029,Wandsworth Bridge,1222.5,121.5,1344.0,525948.0822,175604.6429,51.46540646,-0.188268276,POINT (-0.188268276351643 51.46540646423376),0,0,4,,,,,,,4,3,,,,,19,,,,,,,,,,0,,,,,,,,,,,,,,,,7,,,,,,,,1,,,,,,,,,,,,0,,1,0,,3,5,,,,,,,,,19,,,11,,,0,,,,,,4,,,,2,29,,1,,,3.0,,20.0,,1.0,,,,,,,,
INNCY030,Putney Bridge,2978.0,81.5,3059.5,524261.489,175780.2727,51.46735735,-0.212473655,POINT (-0.2124736550867433 51.46735734530807),0,0,16,,,,,,,11,16,,,,,37,,,,,,,,,,0,,,,,,,,,,,,,,,,8,,,,,,,,3,,,,,,,,,,,,1,,3,2,,6,7,,,,,,,,,38,,,19,,,2,,,,,,9,,,,3,20,,1,,,,,3.0,,,,,,,,,,
INNCY031,Lillie Road,549.5,52.0,601.5,523973.0026,177537.9995,51.4832175,-0.21600846,POINT (-0.2160084597434409 51.483217496738376),E01001886,Hammersmith and Fulham 016A,8,,,,,,,5,5,,,,,16,,,,,,,,,,1,,,,,,,,,,,,,,,,3,,,,,,,,5,,,,,,,,,,,,0,,1,0,,5,0,,,,,,,,,23,,,12,,,0,,,,,,10,,,,0,18,,1,,,5.0,,7.0,,,,1.0,,,,,,
INNCY032,Battersea Park Road,950.5,131.0,1081.5,529186.4454,177288.271,51.4798076,-0.141060551,POINT (-0.1410605508076388 51.47980760378225),E01033132,Wandsworth 002H,1,,,,,,,1,8,,,,,16,,,,,,,,,,0,,,,,,,,,,,,,,,,7,,,,,,,,1,,,,,,,,,,,,1,,0,0,,4,2,,,,,,,,,20,,,8,,,2,,,,,,5,,,,0,26,,0,,,2.0,,6.0,,,,1.0,,,,,,
INNCY033,Battersea Bridge Road,1049.5,107.5,1157.0,527089.6109,177224.8992,51.47971264,-0.171261822,POINT (-0.1712618223517936 51.47971263710144),E01004583,Wandsworth 001D,5,,,,,,,1,9,,,,,23,,,,,,,,,,0,,,,,,,,,,,,,,,,5,,,,,,,,4,,,,,,,,,,,,2,,2,2,,5,6,,,,,,,,,37,,,15,,,1,,,,,,5,,,,0,29,,0,,,2.0,,19.0,,1.0,,2.0,,,,,,
INNCY034,Albert Bridge Road,1383.5,262.0,1645.5,527453.0037,177342.9954,51.48069227,-0.165989157,POINT (-0.1659891567845847 51.48069226952386),E01004582,Wandsworth 001C,3,,,,,,,3,7,,,,,16,,,,,,,,,,1,,,,,,,,,,,,,,,,3,,,,,,,,2,,,,,,,,,,,,1,,2,1,,8,3,,,,,,,,,24,,,12,,,0,,,,,,3,,,,0,26,,0,,,2.0,,12.0,,,,,,,,,,
INNCY035,Cedars Road,982.0,7.0,989.0,528627.0015,175500.0029,51.46386414,-0.149762536,POINT (-0.1497625356148624 51.4638641423324),E01003042,Lambeth 013E,7,,,,,,,3,3,,,,,32,,,,,,,,,,0,,,,,,,,,,,,,,,,1,,,,,,,,5,,,,,,,,,,,,0,,0,0,,2,9,,,,,,,,,20,,,13,,,0,,,,,,4,,,,1,39,,0,,,2.0,1.0,17.0,,,,1.0,1.0,,,,,
INNCY036,Kingston Road,293.0,1.0,294.0,522607.3978,173118.1547,51.44379261,-0.237196306,POINT (-0.2371963061961259 51.443792608518365),E01004572,Wandsworth 016A,0,,,,,,,0,0,,,,,16,,,,,,,,,,0,,,,,,,,,,,,,,,,1,,,,,,,,1,,,,,,,,,,,,0,,1,0,,1,4,,,,,,,,,4,,,0,,,0,,,,,,4,,,,0,12,,1,,,,,21.0,,,1.0,1.0,,,,,,
INNCY037,West Hill,307.0,2.0,309.0,524287.024,174214.7308,51.45328199,-0.212655973,POINT (-0.2126559733653461 51.45328199049315),E01004503,Wandsworth 014C,6,,,,,,,1,1,,,,,28,,,,,,,,,,0,,,,,,,,,,,,,,,,0,,,,,,,,1,,,,,,,,,,,,0,,0,0,,0,0,,,,,,,,,8,,,14,,,0,,,,,,5,,,,0,32,,0,,,,,23.0,,,,1.0,1.0,,,,,
INNCY038,Putney Hill,338.5,0.5,339.0,523822.5302,174511.7558,51.45605308,-0.219233598,POINT (-0.2192335984581191 51.456053084216975),E01004500,Wandsworth 014A,4,,,,,,,6,7,,,,,31,,,,,,,,,,0,,,,,,,,,,,,,,,,3,,,,,,,,3,,,,,,,,,,,,0,,0,1,,0,2,,,,,,,,,0,,,15,,,1,,,,,,8,,,,1,29,,0,,,1.0,,17.0,,,,,,,,,,
INNCY039,Morden Road,267.0,1.5,268.5,525784.1044,169914.4018,51.41430427,-0.192647423,POINT (-0.1926474233525077 51.41430427417424),E01003357,Merton 012A,38,,,,,,,6,12,,,,,29,,,,,,,,,,0,,,,,,,,,,,,,,,,5,,,,,,,,7,,,,,,,,,,,,0,,0,1,,3,5,,,,,,,,,37,,,12,,,1,,,,,,8,,,,1,29,,0,,,1.0,,13.0,,,,1.0,,,,,,
INNCY040,Durnsford Road,188.5,0.0,188.5,525516.7913,172111.3329,51.43410754,-0.195711797,POINT (-0.1957117967251348 51.434107544304126),E01003475,Merton 001D,4,,,,,,,2,5,,,,,18,,,,,,,,,,0,,,,,,,,,,,,,,,,3,,,,,,,,5,,,,,,,,,,,,0,,1,0,,6,2,,,,,,,,,12,,,6,,,0,,,,,,3,,,,0,18,,0,,,,,3.0,,,,,,,,,,
INNCY041,Falcon Road,651.5,103.5,755.0,527236.9996,175763.9973,51.46655054,-0.169666108,POINT (-0.1696661083064238 51.46655053757082),E01004536,Wandsworth 008B,11,,,,,,,10,19,,,,,48,,,,,,,,,,0,,,,,,,,,,,,,,,,11,,,,,,,,5,,,,,,,,,,,,0,,0,0,,6,5,,,,,,,,,52,,,10,,,1,,,,,,11,,,,2,51,,0,,,3.0,1.0,10.0,,,,,,,,,,
INNCY042,King's Road,1590.5,158.0,1748.5,526015.4031,177204.0951,51.47976577,-0.186729797,POINT (-0.186729796662279 51.47976577165899),E01001920,Hammersmith and Fulham 020A,10,,,,,,,9,18,,,,,32,,,,,,,,,,1,,,,,,,,,,,,,,,,7,,,,,,,,5,,,,,,,,,,,,2,,2,2,,2,8,,,,,,,,,36,,,11,,,1,,,,,,9,,,,2,38,,0,,,1.0,,14.0,,1.0,,1.0,1.0,,,,,
INNCY043,Chelsea Embankment,2522.5,153.5,2676.0,528117.836,177811.0614,51.48474865,-0.156250827,POINT (-0.1562508268548675 51.48474864827986),E01002901,Kensington and Chelsea 018C,2,,,,,,,4,6,,,,,17,,,,,,,,,,0,,,,,,,,,,,,,,,,6,,,,,,,,4,,,,,,,,,,,,1,,2,0,,6,6,,,,,,,,,17,,,7,,,5,,,,,,5,,,,1,15,,1,,,2.0,1.0,12.0,,1.0,,,,,,,,
INNCY044,Clapham Common (north side),695.5,14.0,709.5,528264.293,175206.107,51.46130518,-0.15508745,POINT (-0.155087450050419 51.46130517954989),E01004589,Wandsworth 009E,5,,,,,,,4,12,,,,,19,,,,,,,,,,0,,,,,,,,,,,,,,,,1,,,,,,,,3,,,,,,,,,,,,0,,0,0,,2,6,,,,,,,,,31,,,16,,,0,,,,,,4,,,,0,0,,0,,,3.0,1.0,8.0,1.0,,,,,,,,,
INNCY045,Fulham Road,763.0,87.5,850.5,525713.2464,177237.5555,51.48013365,-0.191066717,POINT (-0.1910667170868188 51.480133649446906),E01001920,Hammersmith and Fulham 020A,10,,,,,,,10,19,,,,,34,,,,,,,,,,1,,,,,,,,,,,,,,,,7,,,,,,,,0,,,,,,,,,,,,2,,2,2,,4,9,,,,,,,,,37,,,13,,,2,,,,,,18,,,,3,20,,0,,,,,3.0,,,,,,,,,,
INNCY046,Buckhold Road,268.5,1.0,269.5,525357.6122,174311.3731,51.45391473,-0.197222053,POINT (-0.1972220533619009 51.45391472936805),E01004601,Wandsworth 018D,10,,,,,,,7,8,,,,,40,,,,,,,,,,3,,,,,,,,,,,,,,,,0,,,,,,,,6,,,,,,,,,,,,2,,0,0,,3,6,,,,,,,,,26,,,12,,,2,,,,,,6,,,,0,46,,0,,,5.0,,7.0,,2.0,,1.0,,,,,,
INNCY047,Scrubs Lane,212.5,1.0,213.5,522577.3198,182268.0956,51.52603167,-0.234455622,POINT (-0.2344556218176668 51.52603166986447),E01001877,Hammersmith and Fulham 001D,5,,,,,,,0,1,,,,,13,,,,,,,,,,0,,,,,,,,,,,,,,,,0,,,,,,,,3,,,,,,,,,,,,0,,0,0,,3,1,,,,,,,,,12,,,3,,,1,,,,,,6,,,,4,17,,0,,,1.0,,6.0,1.0,,,2.0,,,,,,
INNCY048,The Vale,751.0,1.5,752.5,520630.6279,180048.321,51.50650066,-0.263261938,POINT (-0.2632619383063764 51.50650066159674),E01001381,Ealing 034D,14,,,,,,,2,8,,,,,28,,,,,,,,,,0,,,,,,,,,,,,,,,,6,,,,,,,,3,,,,,,,,,,,,1,,1,0,,6,4,,,,,,,,,30,,,0,,,1,,,,,,14,,,,2,31,,0,,,2.0,,11.0,,,,1.0,,,2.0,,,
INNCY049,Goldhawk Road,454.0,13.0,467.0,523159.685,179646.6859,51.50234613,-0.226980197,POINT (-0.2269801969269311 51.50234613381856),E01001896,Hammersmith and Fulham 009B,8,,,,,,,8,17,,,,,34,,,,,,,,,,0,,,,,,,,,,,,,,,,8,,,,,,,,6,,,,,,,,,,,,2,,0,2,,3,8,,,,,,,,,60,,,15,,,7,,,,,,19,,,,4,37,,0,,,3.0,,9.0,,,,1.0,,,,,,
INNCY050,Shepherd's Bush Road,538.5,37.5,576.0,523384.9978,178938.9985,51.49593695,-0.22398295,POINT (-0.2239829500500486 51.495936952929824),E01001869,Hammersmith and Fulham 010D,19,,,,,,,16,19,,,,,30,,,,,,,,,,1,,,,,,,,,,,,,,,,12,,,,,,,,9,,,,,,,,,,,,0,,0,2,,2,7,,,,,,,,,40,,,23,,,2,,,,,,13,,,,2,32,,0,,,12.0,,20.0,1.0,,,2.0,1.0,,,,,
INNCY051,Holland Park Avenue,1423.5,116.5,1540.0,524675.0,180242.0,51.50736435,-0.204949649,POINT (-0.2049496492020193 51.50736434532463),E01002871,Kensington and Chelsea 007B,6,,,,,,,9,9,,,,,16,,,,,,,,,,1,,,,,,,,,,,,,,,,3,,,,,,,,5,,,,,,,,,,,,1,,0,0,,9,7,,,,,,,,,23,,,26,,,0,,,,,,9,,,,1,26,,0,,,5.0,,17.0,1.0,,,,,1.0,,,,
INNCY051,Holland Park Avenue,1423.5,116.5,1540.0,524675.0,180242.0,51.50736435,-0.204949649,POINT (-0.2049496492020193 51.50736434532463),E01002871,Kensington and Chelsea 007B,6,,,,,,,9,9,,,,,16,,,,,,,,,,1,,,,,,,,,,,,,,,,3,,,,,,,,5,,,,,,,,,,,,1,,0,0,,9,7,,,,,,,,,23,,,26,,,0,,,,,,9,,,,1,26,,0,,,5.0,,17.0,1.0,,,,,1.0,,,,
INNCY052,Kensington High Street,1774.0,203.5,1977.5,525180.2939,179354.6495,51.49927812,-0.197987343,POINT (-0.1979873434715219 51.49927812146005),E01002817,Kensington and Chelsea 011D,18,,,,,,,14,17,,,,,27,,,,,,,,,,1,,,,,,,,,,,,,,,,11,,,,,,,,6,,,,,,,,,,,,0,,2,1,,10,12,,,,,,,,,59,,,20,,,1,,,,,,14,,,,1,27,,4,,,25.0,3.0,16.0,,1.0,,2.0,,,,,2.0,
INNCY053,Kilburn High Road (Brondesbury),576.0,11.0,587.0,524824.0907,184402.5846,51.54472261,-0.201329668,POINT (-0.2013296677017086 51.54472261108139),E01000931,Camden 013C,20,,,,,,,14,14,,,,,28,,,,,,,,,,0,,,,,,,,,,,,,,,,3,,,,,,,,3,,,,,,,,,,,,0,,0,1,,5,3,,,,,,,,,50,,,14,,,1,,,,,,16,,,,4,36,,0,,,12.0,3.0,6.0,,1.0,,1.0,6.0,1.0,,,,
INNCY054,Kilburn High Road (Kilburn Park),730.5,9.0,739.5,525464.0641,183569.603,51.53709489,-0.192402311,POINT (-0.1924023111762103 51.53709489385941),E01000930,Camden 020B,12,,,,,,,11,7,,,,,33,,,,,,,,,,0,,,,,,,,,,,,,,,,6,,,,,,,,4,,,,,,,,,,,,0,,1,1,,6,6,,,,,,,,,44,,,19,,,2,,,,,,12,,,,2,37,,0,,,25.0,1.0,8.0,4.0,2.0,,,1.0,,,,,
INNCY055,Haverstock Hill,273.5,3.5,277.0,527394.9997,185045.0007,51.54992192,-0.164042965,POINT (-0.1640429651244514 51.549921918906136),E01000849,Camden 011D,5,,,,,,,1,2,,,,,32,,,,,,,,,,0,,,,,,,,,,,,,,,,4,,,,,,,,3,,,,,,,,,,,,1,,2,0,,2,6,,,,,,,,,30,,,26,,,0,,,,,,9,,,,2,39,,2,,,1.0,,21.0,,,,,,,,,,
INNCY056,Kentish Town Road,1513.5,3.0,1516.5,528997.5593,185036.973,51.54948602,-0.140946043,POINT (-0.1409460427264929 51.54948602281144),E01000928,Camden 003E,10,,,,,,,5,13,,,,,35,,,,,,,,,,0,,,,,,,,,,,,,,,,4,,,,,,,,5,,,,,,,,,,,,0,,1,2,,5,10,,,,,,,,,24,,,14,,,1,,,,,,15,,,,3,40,,1,,,2.0,2.0,9.0,,,,1.0,,,,,1.0,
INNCY057,Hampstead Road,1190.5,114.5,1305.0,529211.0,182856.0,51.52983759,-0.138669329,POINT (-0.1386693291556137 51.52983758604324),E01000945,Camden 023B,9,,,,,,,7,19,,,,,36,,,,,,,,,,0,,,,,,,,,,,,,,,,8,,,,,,,,5,,,,,,,,,,,,1,,8,0,,3,0,,,,,,,,,35,,,14,,,2,,,,,,13,,,,4,36,,2,,,1.0,,4.0,,2.0,,5.0,,,,,,
INNCY057,Hampstead Road,1190.5,114.5,1305.0,529211.0,182856.0,51.52983759,-0.138669329,POINT (-0.1386693291556137 51.52983758604324),E01000945,Camden 023B,9,,,,,,,7,19,,,,,36,,,,,,,,,,0,,,,,,,,,,,,,,,,8,,,,,,,,5,,,,,,,,,,,,1,,8,0,,3,0,,,,,,,,,35,,,14,,,2,,,,,,13,,,,4,36,,2,,,1.0,,4.0,,2.0,,5.0,,,,,,
INNCY058,Eversholt Street,600.0,57.0,657.0,529472.4995,182994.6476,51.53102372,-0.134850738,POINT (-0.1348507377504569 51.53102371909107),E01000955,Camden 022D,12,,,,,,,8,26,,,,,37,,,,,,,,,,2,,,,,,,,,,,,,,,,7,,,,,,,,6,,,,,,,,,,,,3,,7,2,,5,0,,,,,,,,,59,,,14,,,4,,,,,,19,,,,4,39,,1,,,4.0,,8.0,,,,,,,,,,
INNCY059,Prince Albert Road,284.5,23.0,307.5,528131.3002,183674.7029,51.53744087,-0.153928067,POINT (-0.1539280666339147 51.5374408667382),E01000860,Camden 018D,4,,,,,,,1,19,,,,,14,,,,,,,,,,0,,,,,,,,,,,,,,,,4,,,,,,,,1,,,,,,,,,,,,2,,1,1,,7,5,,,,,,,,,51,,,7,,,7,,,,,,4,,,,0,17,,1,,,1.0,,13.0,,,,1.0,,,,,,
INNCY060,Sussex Gardens,402.5,37.5,440.0,527038.1535,181308.6202,51.51642411,-0.170533472,POINT (-0.1705334721871828 51.516424110672766),E01004684,Westminster 015C,22,,,,,,,16,25,,,,,48,,,,,,,,,,3,,,,,,,,,,,,,,,,7,,,,,,,,12,,,,,,,,,,,,2,,3,1,,13,27,,,,,,,,,60,,,30,,,0,,,,,,20,,,,5,48,,2,,,8.0,,10.0,,,,,,,,,,
INNCY060,Sussex Gardens,402.5,37.5,440.0,527038.1535,181308.6202,51.51642411,-0.170533472,POINT (-0.1705334721871828 51.516424110672766),E01004684,Westminster 015C,22,,,,,,,16,25,,,,,48,,,,,,,,,,3,,,,,,,,,,,,,,,,7,,,,,,,,12,,,,,,,,,,,,2,,3,1,,13,27,,,,,,,,,60,,,30,,,0,,,,,,20,,,,5,48,,2,,,8.0,,10.0,,,,,,,,,,
INNCY061,Great Western Road,473.5,5.5,479.0,524944.6995,181742.396,51.5207889,-0.200534311,POINT (-0.2005343114080693 51.5207889040342),E01032513,Westminster 010G,12,,,,,,,5,14,,,,,38,,,,,,,,,,1,,,,,,,,,,,,,,,,8,,,,,,,,8,,,,,,,,,,,,4,,2,7,,4,4,,,,,,,,,60,,,28,,,1,,,,,,20,,,,2,39,,1,,,3.0,,,,,,,,,,,,
INNCY062,Archway Road,460.0,0.0,460.0,528501.0005,188148.0024,51.57755699,-0.146967313,POINT (-0.1469673127201815 51.57755699207853),E01002007,Haringey 035C,9,,,,,,,1,2,,,,,27,,,,,,,,,,1,,,,,,,,,,,,,,,,0,,,,,,,,2,,,,,,,,,,,,0,,1,0,,2,2,,,,,,,,,11,,,13,,,0,,,,,,1,,,,1,31,,0,,,,,7.0,,,,1.0,,,,,,
INNCY063,Albany Street,309.5,29.5,339.0,528745.52,183053.72,51.53172066,-0.145303751,POINT (-0.145303751382697 51.531720662678495),E01000946,Camden 021B,6,,,,,,,6,11,,,,,18,,,,,,,,,,0,,,,,,,,,,,,,,,,5,,,,,,,,2,,,,,,,,,,,,0,,1,3,,6,9,,,,,,,,,33,,,8,,,0,,,,,,10,,,,0,19,,1,,,,,13.0,,2.0,,,,,,,,
INNCY064,Notting Hill Gate,1439.0,231.0,1670.0,525499.9961,180522.9951,51.5097072,-0.192968701,POINT (-0.1929687009620577 51.50970720130304),E01002885,Kensington and Chelsea 006D,9,,,,,,,9,18,,,,,32,,,,,,,,,,0,,,,,,,,,,,,,,,,9,,,,,,,,10,,,,,,,,,,,,3,,1,3,,7,8,,,,,,,,,60,,,24,,,0,,,,,,20,,,,1,30,,1,,,6.0,,14.0,2.0,2.0,,4.0,1.0,,,,,
INNCY064,Notting Hill Gate,1439.0,231.0,1670.0,525499.9961,180522.9951,51.5097072,-0.192968701,POINT (-0.1929687009620577 51.50970720130304),E01002885,Kensington and Chelsea 006D,9,,,,,,,9,18,,,,,32,,,,,,,,,,0,,,,,,,,,,,,,,,,9,,,,,,,,10,,,,,,,,,,,,3,,1,3,,7,8,,,,,,,,,60,,,24,,,0,,,,,,20,,,,1,30,,1,,,6.0,,14.0,2.0,2.0,,4.0,1.0,,,,,
INNCY065,Kensington Church Street,139.0,29.5,168.5,525433.3678,180044.0822,51.505418,-0.19409847,POINT (-0.1940984700326492 51.50541799966482),E01002824,Kensington and Chelsea 008A,16,,,,,,,16,26,,,,,36,,,,,,,,,,1,,,,,,,,,,,,,,,,13,,,,,,,,6,,,,,,,,,,,,3,,2,3,,15,12,,,,,,,,,60,,,23,,,1,,,,,,12,,,,2,32,,3,,,2.0,,10.0,1.0,1.0,,,,,,,,
INNCY066,Kensington Road,1210.5,199.0,1409.5,526191.6083,179640.2978,51.50162058,-0.183323648,POINT (-0.1833236481791723 51.501620576689646),E01004688,Westminster 019B,7,,,,,,,4,23,,,,,26,,,,,,,,,,0,,,,,,,,,,,,,,,,7,,,,,,,,3,,,,,,,,,,,,2,,7,3,,5,8,,,,,,,,,35,,,15,,,1,,,,,,5,,,,1,20,,3,,,12.0,,8.0,,1.0,,2.0,10.0,,,,,
INNCY067,Old Brompton Road,932.0,201.0,1133.0,525365.816,178040.2458,51.48742448,-0.195782497,POINT (-0.1957824972778431 51.48742448374158),E01002894,Kensington and Chelsea 017D,8,,,,,,,9,14,,,,,27,,,,,,,,,,0,,,,,,,,,,,,,,,,6,,,,,,,,3,,,,,,,,,,,,0,,1,0,,3,8,,,,,,,,,38,,,13,,,0,,,,,,20,,,,5,34,,2,,,2.0,1.0,14.0,,,,,,,,,,
INNCY068,Earl's Court Road,288.5,37.0,325.5,525574.5974,178544.7314,51.49191202,-0.192597795,POINT (-0.1925977946239188 51.49191201879184),E01002849,Kensington and Chelsea 017B,11,,,,,,,9,17,,,,,35,,,,,,,,,,0,,,,,,,,,,,,,,,,8,,,,,,,,7,,,,,,,,,,,,0,,0,0,,4,9,,,,,,,,,54,,,12,,,2,,,,,,19,,,,5,39,,2,,,5.0,1.0,17.0,,1.0,,,,1.0,,,,
INNCY069,Warwick Road,213.5,51.0,264.5,525336.6862,178371.0811,51.49040416,-0.196084475,POINT (-0.1960844749231494 51.490404158520775),E01002846,Kensington and Chelsea 017A,10,,,,,,,8,13,,,,,34,,,,,,,,,,0,,,,,,,,,,,,,,,,5,,,,,,,,2,,,,,,,,,,,,0,,0,0,,3,10,,,,,,,,,46,,,14,,,0,,,,,,15,,,,4,38,,2,,,,1.0,18.0,,2.0,,2.0,,,,,,
INNCY070,Hammersmith Road,1214.0,98.0,1312.0,524034.4283,178735.8067,51.49396887,-0.214703869,POINT (-0.2147038691116376 51.49396887203136),E01001871,Hammersmith and Fulham 012E,19,,,,,,,6,15,,,,,33,,,,,,,,,,0,,,,,,,,,,,,,,,,7,,,,,,,,8,,,,,,,,,,,,0,,0,0,,5,8,,,,,,,,,50,,,19,,,1,,,,,,17,,,,4,38,,0,,,33.0,,,,,1.0,,,,,,,
INNCY070,Hammersmith Road,1214.0,98.0,1312.0,524034.4283,178735.8067,51.49396887,-0.214703869,POINT (-0.2147038691116376 51.49396887203136),E01001871,Hammersmith and Fulham 012E,19,,,,,,,6,15,,,,,33,,,,,,,,,,0,,,,,,,,,,,,,,,,7,,,,,,,,8,,,,,,,,,,,,0,,0,0,,5,8,,,,,,,,,50,,,19,,,1,,,,,,17,,,,4,38,,0,,,33.0,,,,,1.0,,,,,,,
INNCY071,King Street,1024.5,63.0,1087.5,522509.9989,178605.1441,51.49312664,-0.236696991,POINT (-0.2366969913163411 51.49312664182651),E01001932,Hammersmith and Fulham 011C,15,,,,,,,11,15,,,,,19,,,,,,,,,,2,,,,,,,,,,,,,,,,5,,,,,,,,2,,,,,,,,,,,,0,,2,2,,7,4,,,,,,,,,37,,,24,,,1,,,,,,9,,,,2,29,,0,,,3.0,1.0,9.0,,1.0,,,,,,,,
INNCY071,King Street,1024.5,63.0,1087.5,522509.9989,178605.1441,51.49312664,-0.236696991,POINT (-0.2366969913163411 51.49312664182651),E01001932,Hammersmith and Fulham 011C,15,,,,,,,11,15,,,,,19,,,,,,,,,,2,,,,,,,,,,,,,,,,5,,,,,,,,2,,,,,,,,,,,,0,,2,2,,7,4,,,,,,,,,37,,,24,,,1,,,,,,9,,,,2,29,,0,,,3.0,1.0,9.0,,1.0,,,,,,,,
INNCY072,Wood Lane,642.5,20.0,662.5,523287.5741,180683.0193,51.51163195,-0.224776646,POINT (-0.2247766456007057 51.511631946718175),E01001946,Hammersmith and Fulham 004D,5,,,,,,,4,11,,,,,31,,,,,,,,,,1,,,,,,,,,,,,,,,,8,,,,,,,,3,,,,,,,,,,,,2,,1,0,,5,5,,,,,,,,,60,,,16,,,5,,,,,,13,,,,5,33,,2,,,1.0,,4.0,,1.0,,2.0,,,,,,
INNCY073,Hammersmith Bridge Road,1735.5,58.0,1793.5,523004.6201,178144.5859,51.48888023,-0.229736209,POINT (-0.2297362088113352 51.48888023389725),0,0,19,,,,,,,17,20,,,,,31,,,,,,,,,,2,,,,,,,,,,,,,,,,10,,,,,,,,4,,,,,,,,,,,,0,,1,1,,4,5,,,,,,,,,60,,,23,,,2,,,,,,13,,,,1,31,,0,,,1.0,,9.0,,1.0,,,,1.0,,,,
INNCY074,Great West Road,131.5,8.5,140.0,522189.9998,178370.0014,51.49108254,-0.241385404,POINT (-0.2413854036429727 51.491082538969806),E01001933,Hammersmith and Fulham 011D,7,,,,,,,3,9,,,,,18,,,,,,,,,,1,,,,,,,,,,,,,,,,4,,,,,,,,2,,,,,,,,,,,,1,,2,1,,5,2,,,,,,,,,35,,,18,,,0,,,,,,6,,,,2,20,,0,,,,,15.0,,,,,,,,,,
INNCY075,Fulham Road,506.0,88.0,594.0,527066.7721,178616.7807,51.49222647,-0.171090094,POINT (-0.1710900937821201 51.49222646728428),E01002823,Kensington and Chelsea 014B,10,,,,,,,10,20,,,,,37,,,,,,,,,,1,,,,,,,,,,,,,,,,10,,,,,,,,4,,,,,,,,,,,,3,,9,3,,7,19,,,,,,,,,60,,,26,,,6,,,,,,10,,,,1,36,,0,,,12.0,2.0,4.0,,3.0,,3.0,1.0,,,,,
INNCY076,Buckingham Palace Road,383.5,65.0,448.5,528640.6801,178626.9578,51.49196236,-0.148428073,POINT (-0.1484280730375503 51.491962362307255),E01004750,Westminster 023E,17,,,,,,,17,31,,,,,60,,,,,,,,,,2,,,,,,,,,,,,,,,,9,,,,,,,,10,,,,,,,,,,,,1,,1,1,,7,18,,,,,,,,,60,,,23,,,7,,,,,,14,,,,5,60,,0,,,10.0,,18.0,,2.0,,1.0,,,,,,
INNCY077,King's Road (Belgravia),775.5,147.0,922.5,527597.0037,178335.0014,51.48957486,-0.163558476,POINT (-0.1635584761107107 51.48957486018103),E01002903,Kensington and Chelsea 018E,5,,,,,,,7,11,,,,,28,,,,,,,,,,2,,,,,,,,,,,,,,,,10,,,,,,,,4,,,,,,,,,,,,1,,4,3,,8,13,,,,,,,,,56,,,26,,,5,,,,,,6,,,,2,34,,0,,,3.0,,16.0,,1.0,,5.0,,,1.0,,,
INNCY078,Chalk Farm Road,418.5,4.0,422.5,528572.9964,184248.9985,51.54250155,-0.147353449,POINT (-0.1473534490218704 51.54250155307826),E01000858,Camden 018B,19,,,,,,,11,29,,,,,54,,,,,,,,,,0,,,,,,,,,,,,,,,,6,,,,,,,,4,,,,,,,,,,,,2,,1,3,,8,12,,,,,,,,,60,,,13,,,8,,,,,,18,,,,6,55,,1,,,2.0,,6.0,,,,,3.0,,,,,
INNCY079,Park Road,316.5,93.5,410.0,527569.0035,182420.0021,51.52629237,-0.162485161,POINT (-0.1624851613487499 51.52629237017549),E01004727,Westminster 008D,13,,,,,,,5,10,,,,,33,,,,,,,,,,2,,,,,,,,,,,,,,,,5,,,,,,,,8,,,,,,,,,,,,1,,4,0,,11,5,,,,,,,,,38,,,19,,,0,,,,,,13,,,,2,33,,4,,,,,,,,,,,,,,,
INNCY080,Highbury Grove,765.5,2.5,768.0,531956.5798,184908.1998,51.54764522,-0.098343277,POINT (-0.0983432772930987 51.54764522144711),E01002775,Islington 014D,8,,,,,,,6,13,,,,,31,,,,,,,,,,2,,,,,,,,,,,,,,,,4,,,,,,,,6,,,,,,,,,,,,1,,0,1,,11,6,,,,,,,,,28,,,16,,,0,,,,,,0,,,,3,35,,0,,,3.0,,4.0,,,,2.0,,,1.0,,,
INNCY081,Stoke Newington Road,1480.0,3.0,1483.0,533566.7495,185657.6653,51.55400167,-0.074851443,POINT (-0.0748514429610477 51.55400167418861),E01001834,Hackney 014E,6,,,,,,,5,25,,,,,30,,,,,,,,,,0,,,,,,,,,,,,,,,,5,,,,,,,,6,,,,,,,,,,,,1,,1,8,,3,3,,,,,,,,,45,,,16,,,0,,,,,,19,,,,3,32,,0,,,14.0,,9.0,,,,,,,,,,
INNCY082,Cambridge Heath Road,801.0,42.5,843.5,534917.9254,183093.7392,51.53064046,-0.056356343,POINT (-0.0563563427737773 51.53064045882261),E01004198,Tower Hamlets 002B,7,,,,,,,7,13,,,,,29,,,,,,,,,,1,,,,,,,,,,,,,,,,4,,,,,,,,6,,,,,,,,,,,,0,,4,2,,10,0,,,,,,,,,47,,,25,,,2,,,,,,16,,,,3,37,,0,,,1.0,,19.0,,,,2.0,,,,,1.0,
INNCY083,East Dulwich Road,274.5,0.0,274.5,533062.0034,174499.9992,51.45385328,-0.086332786,POINT (-0.0863327857657156 51.45385327671168),E01004070,Southwark 031B,6,,,,,,,0,1,,,,,27,,,,,,,,,,0,,,,,,,,,,,,,,,,2,,,,,,,,2,,,,,,,,,,,,1,,1,0,,1,1,,,,,,,,,11,,,13,,,0,,,,,,5,,,,2,27,,0,,,2.0,,23.0,,,,1.0,,1.0,,,,
INNCY084,Acre Lane,278.0,15.5,293.5,530630.5019,175107.2953,51.45987657,-0.121082982,POINT (-0.1210829815319184 51.459876565176),E01003055,Lambeth 016D,13,,,,,,,16,36,,,,,39,,,,,,,,,,1,,,,,,,,,,,,,,,,6,,,,,,,,5,,,,,,,,,,,,2,,4,5,,3,13,,,,,,,,,60,,,11,,,1,,,,,,14,,,,4,54,,0,,,1.0,,24.0,,,,3.0,,,,,,
INNCY085,Fulham High Street,701.5,49.5,751.0,524394.9848,176092.9632,51.47013823,-0.210442855,POINT (-0.2104428548850689 51.470138233001606),E01001952,Hammersmith and Fulham 024D,0,,,,,,,3,16,,,,,27,,,,,,,,,,0,,,,,,,,,,,,,,,,5,,,,,,,,2,,,,,,,,,,,,1,,2,1,,5,6,,,,,,,,,37,,,17,,,1,,,,,,9,,,,2,19,,1,,,4.0,1.0,13.0,1.0,,,4.0,,,,,,
INNCY086,Garratt Lane,591.0,2.0,593.0,525867.9979,173232.0021,51.44410124,-0.190264018,POINT (-0.1902640177266941 51.44410123852405),E01004496,Wandsworth 024B,8,,,,,,,3,6,,,,,29,,,,,,,,,,0,,,,,,,,,,,,,,,,4,,,,,,,,5,,,,,,,,,,,,0,,0,0,,3,1,,,,,,,,,29,,,12,,,0,,,,,,4,,,,1,32,,0,,,11.0,,10.0,,2.0,,,,,,,,
INNCY087,Latchmere Road,492.0,35.0,527.0,527702.86,175888.38,51.46756352,-0.162918309,POINT (-0.1629183093801855 51.46756351906561),E01004585,Wandsworth 008D,9,,,,,,,10,15,,,,,33,,,,,,,,,,0,,,,,,,,,,,,,,,,7,,,,,,,,7,,,,,,,,,,,,0,,0,0,,5,4,,,,,,,,,49,,,15,,,1,,,,,,9,,,,2,35,,0,,,1.0,,10.0,,,,,,,,,,
INNCY088,Mitcham Lane,209.0,1.5,210.5,529274.9973,171070.001,51.42390503,-0.14205621,POINT (-0.142056209616117 51.42390503348208),E01004517,Wandsworth 037A,13,,,,,,,2,1,,,,,20,,,,,,,,,,0,,,,,,,,,,,,,,,,3,,,,,,,,2,,,,,,,,,,,,0,,0,0,,1,4,,,,,,,,,9,,,9,,,2,,,,,,4,,,,4,28,,0,,,1.0,,5.0,,,,2.0,,,,,,
INNCY089,Walworth Road,1434.5,5.5,1440.0,532445.8087,177980.173,51.48527233,-0.093892885,POINT (-0.0938928850663067 51.48527232790638),E01003969,Southwark 017B,4,,,,,,,3,4,,,,,28,,,,,,,,,,1,,,,,,,,,,,,,,,,3,,,,,,,,5,,,,,,,,,,,,0,,0,0,,6,6,,,,,,,,,20,,,17,,,0,,,,,,15,,,,0,46,,1,,,18.0,1.0,11.0,1.0,,,,2.0,,,,,
INNCY090,Wandsworth Road,813.5,72.5,886.0,530118.7639,177537.6996,51.48183565,-0.127550705,POINT (-0.127550704855593 51.48183564794717),E01033207,Lambeth 004F,3,,,,,,,5,11,,,,,29,,,,,,,,,,0,,,,,,,,,,,,,,,,10,,,,,,,,5,,,,,,,,,,,,0,,1,11,,7,14,,,,,,,,,33,,,10,,,2,,,,,,9,,,,4,33,,0,,,8.0,,12.0,,,,1.0,,,,,,
INNCY091,South Croxted Road,164.5,0.5,165.0,532893.2352,172185.4717,51.43309327,-0.089628496,POINT (-0.089628495652093 51.43309326823733),E01003951,Southwark 033E,5,,,,,,,0,6,,,,,20,,,,,,,,,,0,,,,,,,,,,,,,,,,0,,,,,,,,1,,,,,,,,,,,,0,,2,0,,3,6,,,,,,,,,9,,,14,,,0,,,,,,4,,,,1,14,,0,,,,,25.0,,,,1.0,,,,,,
INNCY092,Lewisham Way,693.0,0.0,693.0,537388.8136,176162.7732,51.4677628,-0.023454086,POINT (-0.0234540861972004 51.46776280494594),E01003211,Lewisham 008B,5,,,,,,,4,5,,,,,31,,,,,,,,,,0,,,,,,,,,,,,,,,,2,,,,,,,,3,,,,,,,,,,,,1,,0,0,,2,6,,,,,,,,,18,,,9,,,1,,,,,,10,,,,8,37,,0,,,3.0,,7.0,,1.0,,1.0,,,2.0,,,
INNCY093,Christchurch Road,201.0,0.5,201.5,530999.996,173239.9998,51.44301048,-0.116458316,POINT (-0.1164583159790659 51.44301047767083),E01003175,Lambeth 024D,4,,,,,,,5,4,,,,,47,,,,,,,,,,0,,,,,,,,,,,,,,,,3,,,,,,,,3,,,,,,,,,,,,0,,0,1,,5,19,,,,,,,,,18,,,13,,,1,,,,,,9,,,,2,47,,0,,,,,11.0,,,,,,,,,,
INNCY094,Dulwich Common,211.0,1.0,212.0,534338.6274,173343.5202,51.44315947,-0.068409162,POINT (-0.0684091624535654 51.44315947116816),E01003950,Southwark 032B,3,,,,,,,2,1,,,,,33,,,,,,,,,,0,,,,,,,,,,,,,,,,0,,,,,,,,0,,,,,,,,,,,,0,,2,0,,3,2,,,,,,,,,4,,,4,,,0,,,,,,4,,,,0,29,,0,,,3.0,,2.0,1.0,,,1.0,,,,,,
INNCY095,Tulse Hill,277.0,2.0,279.0,531201.0106,174410.0049,51.45347844,-0.113134229,POINT (-0.1131342293575372 51.45347843789188),E01003177,Lambeth 020D,5,,,,,,,4,5,,,,,28,,,,,,,,,,0,,,,,,,,,,,,,,,,2,,,,,,,,4,,,,,,,,,,,,0,,0,1,,8,9,,,,,,,,,16,,,10,,,0,,,,,,8,,,,1,20,,0,,,,,26.0,,,,,,,,,,
INNCY096,Lausanne Road,210.5,2.0,212.5,535366.8855,176560.5293,51.471824,-0.052392624,POINT (-0.0523926244151669 51.47182399839033),E01003339,Lewisham 006B,2,,,,,,,3,5,,,,,20,,,,,,,,,,0,,,,,,,,,,,,,,,,1,,,,,,,,3,,,,,,,,,,,,0,,0,1,,8,0,,,,,,,,,26,,,9,,,1,,,,,,9,,,,4,34,,0,,,,,18.0,,,,,,,,,,
INNCY097,Denmark Hill,666.5,1.5,668.0,532665.1768,176060.7424,51.46797198,-0.09145555,POINT (-0.0914555503995814 51.46797198454944),E01003076,Lambeth 014C,7,,,,,,,4,7,,,,,32,,,,,,,,,,1,,,,,,,,,,,,,,,,5,,,,,,,,5,,,,,,,,,,,,1,,0,0,,5,5,,,,,,,,,35,,,9,,,0,,,,,,12,,,,4,36,,1,,,13.0,1.0,2.0,,1.0,1.0,1.0,6.0,,,,,
INNCY098,Lordship Lane,160.0,1.0,161.0,533682.9802,174456.4116,51.45331543,-0.077417404,POINT (-0.0774174038265016 51.45331543289464),E01004072,Southwark 030E,8,,,,,,,3,2,,,,,36,,,,,,,,,,0,,,,,,,,,,,,,,,,1,,,,,,,,2,,,,,,,,,,,,1,,2,1,,0,0,,,,,,,,,28,,,15,,,0,,,,,,5,,,,0,34,,0,,,1.0,,19.0,,,,1.0,4.0,,,,,
INNCY099,Norwood Road,390.0,1.5,391.5,531765.6489,172685.5285,51.43785021,-0.105654137,POINT (-0.1056541372603199 51.43785020851512),E01003166,Lambeth 028D,4,,,,,,,2,2,,,,,34,,,,,,,,,,0,,,,,,,,,,,,,,,,2,,,,,,,,6,,,,,,,,,,,,1,,2,0,,4,15,,,,,,,,,20,,,10,,,1,,,,,,6,,,,3,36,,0,,,,,13.0,,,,1.0,,,,,,
INNCY100,Kirkdale,171.0,0.0,171.0,534968.0,172025.0,51.43116123,-0.05986091,POINT (-0.0598609104993934 51.43116123202274),E01003259,Lewisham 028D,5,,,,,,,4,4,,,,,34,,,,,,,,,,0,,,,,,,,,,,,,,,,4,,,,,,,,4,,,,,,,,,,,,0,,1,0,,1,2,,,,,,,,,14,,,15,,,0,,,,,,10,,,,1,33,,0,,,4.0,3.0,6.0,,3.0,,1.0,,,,,,
INNCY101,Tooting Bec Road,477.5,1.5,479.0,528415.6806,172056.7085,51.43296764,-0.154051313,POINT (-0.1540513131249551 51.43296764374623),E01004482,Wandsworth 030A,9,,,,,,,5,2,,,,,23,,,,,,,,,,0,,,,,,,,,,,,,,,,0,,,,,,,,4,,,,,,,,,,,,0,,1,0,,2,2,,,,,,,,,27,,,10,,,1,,,,,,8,,,,1,26,,0,,,,,10.0,,,,2.0,,,,,,
INNCY102,Trinity Road,280.0,1.0,281.0,526988.6666,173916.0863,51.44999917,-0.173902124,POINT (-0.1739021238506979 51.44999916697075),E01004622,Wandsworth 024D,0,,,,,,,1,1,,,,,16,,,,,,,,,,0,,,,,,,,,,,,,,,,1,,,,,,,,0,,,,,,,,,,,,0,,2,0,,2,3,,,,,,,,,11,,,6,,,0,,,,,,1,,,,2,20,,0,,,,,20.0,,,,,4.0,,,,,
INNCY103,Roehampton Lane,126.5,4.0,130.5,522130.5282,174213.0313,51.45373554,-0.243676959,POINT (-0.2436769587664073 51.453735539906674),E01004568,Wandsworth 013A,1,,,,,,,0,1,,,,,21,,,,,,,,,,0,,,,,,,,,,,,,,,,1,,,,,,,,2,,,,,,,,,,,,0,,1,0,,2,3,,,,,,,,,5,,,9,,,0,,,,,,5,,,,0,30,,3,,,4.0,,14.0,1.0,,,,,,,,,
INNCY104,Rocks Lane,488.5,0.5,489.0,522551.9003,176230.0039,51.47177164,-0.236917154,POINT (-0.2369171541811836 51.4717716419158),E01003852,Richmond upon Thames 003A,2,,,,,,,0,0,,,,,19,,,,,,,,,,0,,,,,,,,,,,,,,,,0,,,,,,,,1,,,,,,,,,,,,1,,0,0,,2,1,,,,,,,,,10,,,5,,,0,,,,,,0,,,,1,0,,0,,,,,3.0,,,,,,,,,,
INNCY105,Fulham Palace Road,545.0,49.0,594.0,523542.4125,178013.5534,51.4875855,-0.222040109,POINT (-0.2220401091585997 51.48758550033701),E01001891,Hammersmith and Fulham 018B,14,,,,,,,14,17,,,,,31,,,,,,,,,,0,,,,,,,,,,,,,,,,8,,,,,,,,5,,,,,,,,,,,,0,,0,0,,6,6,,,,,,,,,52,,,10,,,2,,,,,,11,,,,2,28,,0,,,,,17.0,,,,2.0,1.0,,,,,
INNCY106,Battersea Rise,643.5,7.5,651.0,527036.1335,174955.0589,51.45932573,-0.172846617,POINT (-0.1728466172412291 51.45932573474936),E01004553,Wandsworth 015A,1,,,,,,,0,24,,,,,44,,,,,,,,,,0,,,,,,,,,,,,,,,,9,,,,,,,,6,,,,,,,,,,,,0,,1,0,,4,4,,,,,,,,,55,,,16,,,1,,,,,,8,,,,2,50,,0,,,4.0,1.0,13.0,1.0,,,2.0,,1.0,,,,
INNCY107,Lavendar Hill,524.5,38.0,562.5,527983.8538,175604.433,51.4649483,-0.158977939,POINT (-0.1589779390796049 51.46494830493407),E01004589,Wandsworth 009E,7,,,,,,,10,20,,,,,39,,,,,,,,,,0,,,,,,,,,,,,,,,,5,,,,,,,,5,,,,,,,,,,,,0,,0,0,,4,6,,,,,,,,,50,,,13,,,1,,,,,,8,,,,1,33,,0,,,8.0,,3.0,,4.0,,,,,,,,
INNCY108,Merton High Street,571.0,0.0,571.0,526332.4999,170127.4608,51.41609724,-0.184690036,POINT (-0.1846900364943417 51.416097241928405),E01003359,Merton 006A,34,,,,,,,7,10,,,,,33,,,,,,,,,,0,,,,,,,,,,,,,,,,9,,,,,,,,3,,,,,,,,,,,,0,,1,1,,5,7,,,,,,,,,41,,,6,,,4,,,,,,9,,,,3,34,,1,,,2.0,,10.0,,1.0,,1.0,,,,,,
INNCY109,Putney Bridge Road,464.5,23.0,487.5,524568.7989,175243.7662,51.4624682,-0.208240694,POINT (-0.2082406940283992 51.46246820174976),E01033093,Wandsworth 010F,20,,,,,,,8,15,,,,,38,,,,,,,,,,0,,,,,,,,,,,,,,,,8,,,,,,,,2,,,,,,,,,,,,1,,0,1,,3,7,,,,,,,,,35,,,12,,,2,,,,,,8,,,,1,34,,1,,,1.0,,10.0,,,,2.0,,,,,,
INNCY110,Poynders Road,344.0,1.5,345.5,529333.8176,174023.1157,51.45043075,-0.140133011,POINT (-0.1401330113047741 51.45043074560073),E01003031,Lambeth 023A,5,,,,,,,3,4,,,,,29,,,,,,,,,,0,,,,,,,,,,,,,,,,3,,,,,,,,5,,,,,,,,,,,,0,,1,2,,1,3,,,,,,,,,19,,,18,,,1,,,,,,7,,,,1,32,,0,,,4.0,,10.0,2.0,,,,,,,,,
INNCY111,Junction Road,905.5,0.0,905.5,529190.8235,186065.2686,51.55868276,-0.137782926,POINT (-0.1377829259176273 51.558682759467885),E01002768,Islington 004A,7,,,,,,,3,8,,,,,34,,,,,,,,,,0,,,,,,,,,,,,,,,,3,,,,,,,,6,,,,,,,,,,,,1,,0,0,,8,7,,,,,,,,,31,,,11,,,0,,,,,,11,,,,2,38,,1,,,5.0,,23.0,,,,1.0,,,1.0,,,
INNCY112,Harrow Road,207.5,2.5,210.0,523943.947,182461.9801,51.52747612,-0.21469793,POINT (-0.214697930127077 51.52747612319934),E01004721,Westminster 004D,5,,,,,,,3,4,,,,,35,,,,,,,,,,0,,,,,,,,,,,,,,,,5,,,,,,,,2,,,,,,,,,,,,0,,2,2,,7,2,,,,,,,,,24,,,16,,,1,,,,,,6,,,,3,34,,1,,,3.0,,6.0,1.0,,,,,,,,,
INNCY113,Holland Road,343.5,11.0,354.5,524145.9097,179600.969,51.50171972,-0.212794731,POINT (-0.2127947311996511 51.50171971957546),E01002866,Kensington and Chelsea 009B,6,,,,,,,4,12,,,,,26,,,,,,,,,,0,,,,,,,,,,,,,,,,6,,,,,,,,8,,,,,,,,,,,,2,,0,1,,5,12,,,,,,,,,50,,,18,,,5,,,,,,16,,,,3,36,,0,,,5.0,,15.0,,,,,,,,,,
INNCY114,Cromwell Road,140.5,28.5,169.0,526066.4483,178881.6749,51.49483077,-0.185396678,POINT (-0.1853966778977472 51.494830771633225),E01002835,Kensington and Chelsea 016C,10,,,,,,,17,31,,,,,48,,,,,,,,,,0,,,,,,,,,,,,,,,,9,,,,,,,,7,,,,,,,,,,,,3,,3,3,,6,14,,,,,,,,,60,,,20,,,4,,,,,,16,,,,2,48,,3,,,8.0,1.0,18.0,,3.0,,1.0,8.0,,,,,
INNCY115,Marylebone Road,558.0,68.5,626.5,528466.5938,182104.2225,51.52325126,-0.149668667,POINT (-0.1496686674413616 51.52325125955547),E01004716,Westminster 011C,51,,,,,,,12,20,,,,,29,,,,,,,,,,1,,,,,,,,,,,,,,,,13,,,,,,,,8,,,,,,,,,,,,2,,7,1,,17,18,,,,,,,,,60,,,24,,,2,,,,,,12,,,,1,24,,8,,,12.0,,21.0,,4.0,,1.0,5.0,,,,,
INNCY116,Vauxhall Bridge Road,832.0,72.0,904.0,529591.484,178566.6251,51.49120325,-0.134762425,POINT (-0.1347624251383051 51.49120325127824),E01004747,Westminster 021E,11,,,,,,,12,26,,,,,51,,,,,,,,,,5,,,,,,,,,,,,,,,,10,,,,,,,,9,,,,,,,,,,,,2,,2,1,,6,19,,,,,,,,,60,,,27,,,4,,,,,,19,,,,3,37,,1,,,8.0,,8.0,2.0,,,1.0,,,,,1.0,
INNCY117,Talgarth Road,64.0,2.5,66.5,524234.5771,178360.0142,51.49054769,-0.211954424,POINT (-0.2119544244191781 51.49054768738968),E01001910,Hammersmith and Fulham 014B,17,,,,,,,4,8,,,,,20,,,,,,,,,,0,,,,,,,,,,,,,,,,6,,,,,,,,4,,,,,,,,,,,,0,,0,0,,7,5,,,,,,,,,27,,,19,,,0,,,,,,14,,,,1,20,,0,,,,,22.0,,,,2.0,,,,,,
INNCY118,Holloway Road,989.0,8.0,997.0,529750.8281,186661.0581,51.56390845,-0.129489647,POINT (-0.129489646962262 51.56390844937102),E01002774,Islington 004E,4,,,,,,,7,6,,,,,38,,,,,,,,,,0,,,,,,,,,,,,,,,,6,,,,,,,,6,,,,,,,,,,,,1,,0,3,,15,5,,,,,,,,,34,,,12,,,0,,,,,,16,,,,1,32,,1,,,9.0,,16.0,,1.0,,2.0,,,,,1.0,
INNCY119,Wellington Road,175.5,22.5,198.0,527023.3454,182926.2372,51.5309647,-0.170164106,POINT (-0.1701641061184853 51.53096470217322),E01004725,Westminster 003B,3,,,,,,,3,3,,,,,30,,,,,,,,,,0,,,,,,,,,,,,,,,,4,,,,,,,,5,,,,,,,,,,,,0,,0,1,,7,2,,,,,,,,,17,,,16,,,0,,,,,,6,,,,1,0,,0,,,4.0,,21.0,,,,,1.0,,,,,
INNCY120,Bayswater Road,672.5,125.5,798.0,527115.6406,180848.7318,51.51227375,-0.169583032,POINT (-0.1695830318937874 51.512273749235874),E01004683,Westminster 015B,12,,,,,,,10,15,,,,,23,,,,,,,,,,1,,,,,,,,,,,,,,,,2,,,,,,,,7,,,,,,,,,,,,2,,3,1,,18,12,,,,,,,,,58,,,12,,,0,,,,,,12,,,,3,20,,1,,,6.0,,9.0,,1.0,,1.0,,,,,,
INNCY121,Old Brompton Road,377.5,77.0,454.5,526101.0034,178444.0002,51.49088971,-0.185055405,POINT (-0.1850554046762956 51.49088970740584),E01002836,Kensington and Chelsea 016D,11,,,,,,,12,27,,,,,39,,,,,,,,,,0,,,,,,,,,,,,,,,,9,,,,,,,,6,,,,,,,,,,,,3,,5,2,,6,10,,,,,,,,,60,,,18,,,3,,,,,,18,,,,4,48,,2,,,2.0,1.0,14.0,,,,,,,,,,
INNCY122,Camden Road,1077.0,11.0,1088.0,529461.8717,184552.0418,51.54502189,-0.134431649,POINT (-0.1344316486481174 51.545021890022014),E01000865,Camden 015B,13,,,,,,,9,13,,,,,40,,,,,,,,,,0,,,,,,,,,,,,,,,,2,,,,,,,,3,,,,,,,,,,,,3,,1,3,,5,8,,,,,,,,,31,,,15,,,3,,,,,,17,,,,3,54,,1,,,1.0,1.0,16.0,,,,2.0,5.0,,,,,
INNCY123,Edgware Road (Maida Vale),643.0,32.0,675.0,526604.4963,182183.5897,51.52438461,-0.176465818,POINT (-0.1764658177181038 51.52438461453679),E01033598,Westminster 009F,8,,,,,,,10,14,,,,,37,,,,,,,,,,2,,,,,,,,,,,,,,,,4,,,,,,,,4,,,,,,,,,,,,3,,0,2,,8,11,,,,,,,,,39,,,17,,,0,,,,,,18,,,,1,36,,0,,,24.0,,8.0,,,,4.0,,,,,1.0,
INNCY124,Edgware Road (Lisson Grove),675.5,66.5,742.0,527515.9878,181222.3849,51.51554158,-0.163681945,POINT (-0.1636819450806366 51.51554157535611),E01004686,Westminster 015E,35,,,,,,,15,25,,,,,48,,,,,,,,,,2,,,,,,,,,,,,,,,,9,,,,,,,,13,,,,,,,,,,,,3,,4,0,,16,26,,,,,,,,,60,,,19,,,1,,,,,,17,,,,2,51,,2,,,24.0,,8.0,,,,4.0,,,,,1.0,
INNCY125,Sloane Street,739.0,91.0,830.0,527917.4315,179065.4723,51.49606715,-0.158681283,POINT (-0.1586812830334016 51.49606715012112),E01002863,Kensington and Chelsea 012E,8,,,,,,,16,28,,,,,38,,,,,,,,,,0,,,,,,,,,,,,,,,,5,,,,,,,,7,,,,,,,,,,,,1,,1,4,,6,26,,,,,,,,,60,,,25,,,8,,,,,,8,,,,1,30,,0,,,3.0,,19.0,,1.0,,3.0,1.0,,1.0,,,
INNCY126,Pembridge Villas,150.0,24.0,174.0,525294.3066,181054.9828,51.51453377,-0.19574217,POINT (-0.1957421697925401 51.51453376951317),E01002886,Kensington and Chelsea 006E,13,,,,,,,9,26,,,,,38,,,,,,,,,,0,,,,,,,,,,,,,,,,0,,,,,,,,12,,,,,,,,,,,,6,,0,6,,5,10,,,,,,,,,60,,,19,,,0,,,,,,27,,,,3,38,,1,,,1.0,,18.0,4.0,,,1.0,,,,,,
INNCY127,Bishop's Bridge Road,222.5,62.5,285.0,525922.0031,181270.0013,51.5163267,-0.186624384,POINT (-0.1866243838796254 51.51632670309903),E01004652,Westminster 017A,12,,,,,,,5,25,,,,,36,,,,,,,,,,0,,,,,,,,,,,,,,,,11,,,,,,,,12,,,,,,,,,,,,0,,1,5,,9,15,,,,,,,,,60,,,20,,,0,,,,,,25,,,,3,38,,1,,,1.0,,4.0,,,,,2.0,,,,,
INNCY128,Park Lane,362.5,58.5,421.0,528255.1492,180336.6984,51.50741495,-0.153357263,POINT (-0.1533572629166891 51.507414946847696),E01004689,Westminster 019C,22,,,,,,,16,40,,,,,32,,,,,,,,,,0,,,,,,,,,,,,,,,,5,,,,,,,,4,,,,,,,,,,,,2,,4,3,,18,13,,,,,,,,,60,,,0,,,3,,,,,,6,,,,1,32,,3,,,35.0,,,,,,,,,,,,
INNCY129,Grosvenor Place,690.5,87.5,778.0,528550.9655,179563.2498,51.50039699,-0.149378844,POINT (-0.1493788444835213 51.500396994817216),E01004731,Westminster 020A,10,,,,,,,12,46,,,,,35,,,,,,,,,,0,,,,,,,,,,,,,,,,7,,,,,,,,7,,,,,,,,,,,,2,,2,3,,17,18,,,,,,,,,20,,,13,,,6,,,,,,8,,,,2,36,,1,,,19.0,,8.0,,1.0,,,,,,,,
INNCY130,Brecknock Road,460.0,12.5,472.5,529535.0631,185409.0665,51.55270686,-0.133061498,POINT (-0.1330614983756448 51.55270685954813),E01000924,Camden 009C,7,,,,,,,3,9,,,,,33,,,,,,,,,,0,,,,,,,,,,,,,,,,3,,,,,,,,6,,,,,,,,,,,,3,,2,0,,6,8,,,,,,,,,25,,,14,,,1,,,,,,11,,,,1,45,,1,,,2.0,,18.0,,,,1.0,,,,,,
INNCY131,Harrow Road,441.5,5.0,446.5,525425.9555,181900.1509,51.52210008,-0.193545452,POINT (-0.1935454516094979 51.52210008073819),E01032512,Westminster 010F,8,,,,,,,0,6,,,,,29,,,,,,,,,,1,,,,,,,,,,,,,,,,6,,,,,,,,9,,,,,,,,,,,,0,,0,1,,5,7,,,,,,,,,30,,,19,,,0,,,,,,16,,,,2,37,,0,,,3.0,,6.0,1.0,,,,,,,,,
INNCY132,Stamford Hill,856.0,1.5,857.5,533653.4051,186933.67,51.56544771,-0.073117673,POINT (-0.0731176732094208 51.56544771245903),E01001800,Hackney 004C,4,,,,,,,2,8,,,,,31,,,,,,,,,,0,,,,,,,,,,,,,,,,1,,,,,,,,3,,,,,,,,,,,,0,,0,1,,2,1,,,,,,,,,40,,,18,,,0,,,,,,17,,,,1,31,,0,,,1.0,,,,,,,,,,,,
INNCY133,Caledonian Road,589.5,3.0,592.5,530647.0745,184348.9799,51.54292419,-0.117425108,POINT (-0.1174251077117379 51.54292419087443),E01002712,Islington 015B,1,,,,,,,4,7,,,,,29,,,,,,,,,,0,,,,,,,,,,,,,,,,5,,,,,,,,5,,,,,,,,,,,,2,,0,2,,10,8,,,,,,,,,16,,,14,,,1,,,,,,9,,,,1,34,,0,,,1.0,,16.0,,1.0,,1.0,,,,,,
INNCY134,City Road,979.5,100.0,1079.5,532131.6802,182892.8867,51.5294938,-0.096575286,POINT (-0.0965752855413019 51.529493801266334),E01002702,Islington 023B,49,,,,,,,11,16,,,,,40,,,,,,,,,,4,,,,,,,,,,,,,,,,11,,,,,,,,9,,,,,,,,,,,,1,,3,7,,8,19,,,,,,,,,40,,,22,,,7,,,,,,18,,,,1,47,,1,,,4.0,,8.0,1.0,,,1.0,,,,,,
INNCY135,Kingsland Road,1940.5,85.0,2025.5,533475.8725,183701.3453,51.53644304,-0.076902843,POINT (-0.0769028425752611 51.53644303747513),E01001754,Hackney 025C,8,,,,,,,3,11,,,,,33,,,,,,,,,,0,,,,,,,,,,,,,,,,4,,,,,,,,4,,,,,,,,,,,,0,,2,2,,9,3,,,,,,,,,27,,,16,,,1,,,,,,14,,,,3,37,,0,,,5.0,,20.0,,,,1.0,,,1.0,,,
INNCY136,Commercial Street,2089.0,174.5,2263.5,533691.8766,181843.717,51.5196987,-0.074494769,POINT (-0.0744947694154749 51.51969869596529),E01004307,Tower Hamlets 015B,51,,,,,,,32,60,,,,,50,,,,,,,,,,8,,,,,,,,,,,,,,,,26,,,,,,,,5,,,,,,,,,,,,8,,4,13,,8,26,,,,,,,,,60,,,20,,,13,,,,,,19,,,,3,39,,8,,,7.0,,,,,,,,,,,,
INNCY137,Upper Clapton Road,430.0,1.0,431.0,534553.1062,186943.0174,51.56531796,-0.060141691,POINT (-0.0601416914990928 51.565317958186775),E01001728,Hackney 029B,4,,,,,,,1,0,,,,,24,,,,,,,,,,0,,,,,,,,,,,,,,,,1,,,,,,,,3,,,,,,,,,,,,0,,0,2,,2,1,,,,,,,,,0,,,14,,,0,,,,,,9,,,,1,19,,0,,,10.0,1.0,14.0,,2.0,,3.0,,,,,,
INNCY138,Holloway Road,854.0,11.5,865.5,531209.1403,185167.8455,51.55015265,-0.109019614,POINT (-0.1090196135897294 51.55015265251558),E01002739,Islington 013A,3,,,,,,,9,9,,,,,32,,,,,,,,,,0,,,,,,,,,,,,,,,,10,,,,,,,,8,,,,,,,,,,,,0,,1,0,,8,8,,,,,,,,,40,,,10,,,0,,,,,,21,,,,6,35,,4,,,9.0,,16.0,,1.0,,2.0,,,,,1.0,
INNCY139,Crouch Hill,267.0,1.0,268.0,530573.8583,187490.5706,51.57117309,-0.117314808,POINT (-0.1173148075118879 51.5711730905472),E01002805,Islington 003B,3,,,,,,,4,7,,,,,32,,,,,,,,,,0,,,,,,,,,,,,,,,,6,,,,,,,,5,,,,,,,,,,,,1,,0,0,,11,7,,,,,,,,,37,,,16,,,0,,,,,,11,,,,0,38,,0,,,,,16.0,,,,1.0,,1.0,1.0,,,
INNCY140,Victoria Park Road,97.5,4.5,102.0,536426.145,184639.4668,51.54416847,-0.034028388,POINT (-0.0340283881083024 51.5441684709063),E01001848,Hackney 018C,2,,,,,,,0,7,,,,,37,,,,,,,,,,0,,,,,,,,,,,,,,,,4,,,,,,,,1,,,,,,,,,,,,0,,1,0,,6,2,,,,,,,,,18,,,6,,,0,,,,,,4,,,,3,37,,1,,,3.0,1.0,27.0,,2.0,,3.0,,,,,,
INNCY141,Commercial Road,424.5,49.5,474.0,534990.0614,181286.5265,51.51438317,-0.0560088,POINT (-0.0560088003390318 51.514383171575176),E01004326,Tower Hamlets 017D,37,,,,,,,5,3,,,,,37,,,,,,,,,,1,,,,,,,,,,,,,,,,5,,,,,,,,3,,,,,,,,,,,,0,,1,2,,8,12,,,,,,,,,34,,,36,,,4,,,,,,0,,,,4,35,,3,,,7.0,,14.0,,,,,6.0,,,,,
INNCY142,Green Lanes,926.0,11.0,937.0,532485.0965,185927.3981,51.55668041,-0.090342127,POINT (-0.0903421269791646 51.55668040779032),E01001738,Hackney 012C,6,,,,,,,0,9,,,,,31,,,,,,,,,,0,,,,,,,,,,,,,,,,3,,,,,,,,3,,,,,,,,,,,,0,,1,1,,5,1,,,,,,,,,36,,,14,,,0,,,,,,11,,,,0,35,,0,,,2.0,,11.0,,2.0,,2.0,3.0,,,,,
INNCY143,Graham Road,365.0,9.0,374.0,534637.9973,184847.9971,51.54647141,-0.059719062,POINT (-0.059719062178872 51.54647141037001),E01001762,Hackney 017D,8,,,,,,,7,13,,,,,35,,,,,,,,,,3,,,,,,,,,,,,,,,,6,,,,,,,,5,,,,,,,,,,,,1,,1,1,,1,4,,,,,,,,,33,,,17,,,0,,,,,,20,,,,4,56,,1,,,5.0,1.0,10.0,,,,1.0,,,,,,
INNCY144,The Highway,154.5,10.5,165.0,534704.4938,180731.0055,51.5094592,-0.060333727,POINT (-0.0603337270176056 51.5094591979257),E01004294,Tower Hamlets 026B,17,,,,,,,5,7,,,,,30,,,,,,,,,,0,,,,,,,,,,,,,,,,8,,,,,,,,4,,,,,,,,,,,,1,,2,1,,8,14,,,,,,,,,29,,,26,,,3,,,,,,11,,,,2,35,,0,,,,,15.0,,,,,2.0,,,,,
INNCY145,Bethnal Green Road,1222.0,125.5,1347.5,534236.4794,182589.0537,51.52626748,-0.066366508,POINT (-0.066366507652308 51.52626747609717),E01004313,Tower Hamlets 009B,10,,,,,,,10,25,,,,,19,,,,,,,,,,0,,,,,,,,,,,,,,,,10,,,,,,,,6,,,,,,,,,,,,4,,4,4,,7,6,,,,,,,,,60,,,20,,,7,,,,,,20,,,,6,29,,0,,,3.0,,12.0,,2.0,,1.0,,,,,,
INNCY146,Homerton High Street,732.0,1.0,733.0,535838.9977,185118.9995,51.54861912,-0.042305192,POINT (-0.0423051915492876 51.54861911965799),E01001733,Hackney 015A,3,,,,,,,2,9,,,,,35,,,,,,,,,,1,,,,,,,,,,,,,,,,2,,,,,,,,5,,,,,,,,,,,,1,,0,1,,3,3,,,,,,,,,24,,,16,,,0,,,,,,14,,,,1,38,,0,,,2.0,1.0,24.0,,,,,,,,,1.0,
INNCY147,Upper Street,1230.5,8.5,1239.0,531662.6021,184188.016,51.54124192,-0.10284967,POINT (-0.1028496698930931 51.54124192153351),E01002790,Islington 016D,7,,,,,,,9,31,,,,,30,,,,,,,,,,3,,,,,,,,,,,,,,,,6,,,,,,,,8,,,,,,,,,,,,3,,0,0,,8,12,,,,,,,,,60,,,16,,,1,,,,,,13,,,,3,36,,0,,,17.0,,15.0,,1.0,,,,,,,,
INNCY148,New North Road,1395.5,67.5,1463.0,532573.6814,183649.5601,51.53619007,-0.089922553,POINT (-0.0899225534318378 51.536190074945104),E01002798,Islington 018C,12,,,,,,,3,6,,,,,30,,,,,,,,,,1,,,,,,,,,,,,,,,,5,,,,,,,,8,,,,,,,,,,,,0,,4,0,,8,13,,,,,,,,,12,,,12,,,2,,,,,,10,,,,1,33,,0,,,1.0,,6.0,,1.0,,2.0,3.0,,,,,
INNCY149,Balls Pond Road,1165.5,32.0,1197.5,533009.0,184816.0,51.54656983,-0.083209415,POINT (-0.0832094151513526 51.54656982637575),E01001756,Hackney 021E,8,,,,,,,7,31,,,,,49,,,,,,,,,,0,,,,,,,,,,,,,,,,8,,,,,,,,5,,,,,,,,,,,,2,,1,5,,6,6,,,,,,,,,59,,,11,,,1,,,,,,21,,,,4,57,,0,,,7.0,,10.0,,,,,,,,,,
INNCY150,East India Dock Road,338.5,6.5,345.0,537986.7949,181016.4838,51.51123325,-0.012955174,POINT (-0.0129551737894145 51.51123324696138),E01004247,Tower Hamlets 020C,11,,,,,,,13,13,,,,,45,,,,,,,,,,1,,,,,,,,,,,,,,,,10,,,,,,,,3,,,,,,,,,,,,2,,1,0,,10,9,,,,,,,,,47,,,10,,,3,,,,,,9,,,,9,39,,3,,,,,4.0,,,,,,,,,,
INNCY151,Essex Road (Canonbury),1541.5,8.0,1549.5,532420.2243,184362.8659,51.54263612,-0.091865707,POINT (-0.0918657068701157 51.54263612032581),E01002720,Islington 016C,5,,,,,,,5,15,,,,,33,,,,,,,,,,2,,,,,,,,,,,,,,,,6,,,,,,,,7,,,,,,,,,,,,1,,0,0,,9,6,,,,,,,,,20,,,14,,,1,,,,,,12,,,,3,39,,0,,,4.0,,20.0,,2.0,,1.0,3.0,,,,,
INNCY152,Rotherhithe Tunnel,55.0,1.0,56.0,535525.001,180356.0029,51.50589332,-0.048661759,POINT (-0.048661759047733 51.50589332013715),0,0,0,,,,,,,0,6,,,,,29,,,,,,,,,,0,,,,,,,,,,,,,,,,4,,,,,,,,4,,,,,,,,,,,,0,,2,0,,11,7,,,,,,,,,12,,,10,,,1,,,,,,3,,,,5,31,,0,,,3.0,,4.0,,,,,,,,,,
INNCY153,Amhurst Park,465.5,4.5,470.0,533370.7232,187914.2893,51.5743267,-0.076821708,POINT (-0.0768217075545861 51.57432670383527),E01001807,Hackney 003D,8,,,,,,,3,2,,,,,36,,,,,,,,,,0,,,,,,,,,,,,,,,,0,,,,,,,,3,,,,,,,,,,,,0,,0,0,,3,1,,,,,,,,,12,,,25,,,0,,,,,,12,,,,2,47,,0,,,,,27.0,,,,1.0,,,,,,
INNCY154,Pentonville Road,697.0,61.5,758.5,531062.9801,183097.2482,51.53157914,-0.11189671,POINT (-0.1118967095734548 51.531579140318726),E01002695,Islington 021A,12,,,,,,,13,26,,,,,48,,,,,,,,,,4,,,,,,,,,,,,,,,,9,,,,,,,,8,,,,,,,,,,,,3,,3,5,,8,20,,,,,,,,,60,,,18,,,2,,,,,,14,,,,1,51,,3,,,1.0,,5.0,,,,,4.0,,,,,
INNCY155,Victoria Park Road,268.5,15.0,283.5,535020.3703,183725.9283,51.53629699,-0.054638172,POINT (-0.0546381723776394 51.53629698679629),E01001837,Hackney 023B,4,,,,,,,2,16,,,,,26,,,,,,,,,,0,,,,,,,,,,,,,,,,6,,,,,,,,1,,,,,,,,,,,,0,,1,3,,6,1,,,,,,,,,48,,,13,,,1,,,,,,17,,,,3,37,,1,,,3.0,1.0,27.0,,2.0,,3.0,,,,,,
INNCY156,Pembury Road,560.0,4.0,564.0,534669.5924,185274.0651,51.55029262,-0.059100752,POINT (-0.0591007521589168 51.55029262234567),E01001758,Hackney 016D,6,,,,,,,8,12,,,,,36,,,,,,,,,,2,,,,,,,,,,,,,,,,3,,,,,,,,5,,,,,,,,,,,,1,,1,1,,2,4,,,,,,,,,43,,,18,,,0,,,,,,16,,,,3,52,,0,,,,,7.0,,,,,,1.0,,,,
INNCY157,Camden Road,1082.0,13.5,1095.5,529863.5875,185048.4497,51.54939069,-0.128458793,POINT (-0.1284587934533008 51.54939069420355),E01002764,Islington 010A,2,,,,,,,4,4,,,,,33,,,,,,,,,,0,,,,,,,,,,,,,,,,4,,,,,,,,5,,,,,,,,,,,,2,,2,0,,5,3,,,,,,,,,4,,,14,,,0,,,,,,9,,,,0,39,,0,,,1.0,1.0,16.0,,,,2.0,5.0,,,,,
INNCY158,Canonbury Road,1328.0,41.0,1369.0,532090.257,184179.0286,51.54106133,-0.096690012,POINT (-0.0966900115972658 51.5410613282272),E01002719,Islington 016B,8,,,,,,,12,30,,,,,38,,,,,,,,,,3,,,,,,,,,,,,,,,,10,,,,,,,,9,,,,,,,,,,,,3,,0,1,,10,12,,,,,,,,,60,,,15,,,1,,,,,,18,,,,2,40,,0,,,,,12.0,,,,,,,,,1.0,
INNCY159,Essex Road (Islington),1903.0,14.0,1917.0,531823.4303,183744.0331,51.53721458,-0.100698053,POINT (-0.1006980529474384 51.537214582731885),E01002801,Islington 020C,14,,,,,,,12,34,,,,,31,,,,,,,,,,3,,,,,,,,,,,,,,,,10,,,,,,,,7,,,,,,,,,,,,4,,0,4,,10,16,,,,,,,,,60,,,16,,,4,,,,,,15,,,,1,33,,0,,,4.0,,20.0,,2.0,,1.0,3.0,,,,,
INNCY160,Lower Clapton Road,1096.5,11.0,1107.5,534871.0028,186060.0001,51.55730713,-0.055896562,POINT (-0.0558965623813359 51.55730712977425),E01001770,Hackney 010E,3,,,,,,,2,2,,,,,32,,,,,,,,,,0,,,,,,,,,,,,,,,,3,,,,,,,,2,,,,,,,,,,,,0,,0,0,,4,4,,,,,,,,,20,,,14,,,0,,,,,,9,,,,1,36,,0,,,4.0,1.0,15.0,1.0,1.0,,,,1.0,,,,
INNCY161,St. Paul's Road,472.0,12.0,484.0,532354.7338,184867.5915,51.54718714,-0.092619863,POINT (-0.0926198627608934 51.54718713805635),E01002775,Islington 014D,7,,,,,,,3,9,,,,,36,,,,,,,,,,2,,,,,,,,,,,,,,,,3,,,,,,,,5,,,,,,,,,,,,1,,0,1,,9,5,,,,,,,,,27,,,14,,,0,,,,,,12,,,,3,40,,0,,,,,7.0,,,,,,,,,,
INNCY162,Cambridge Heath Road,929.0,55.0,984.0,534954.3356,182008.7398,51.52088169,-0.056247043,POINT (-0.0562470425623501 51.52088169470942),E01004208,Tower Hamlets 013C,48,,,,,,,11,5,,,,,38,,,,,,,,,,1,,,,,,,,,,,,,,,,9,,,,,,,,2,,,,,,,,,,,,1,,1,1,,5,6,,,,,,,,,48,,,29,,,2,,,,,,17,,,,4,48,,0,,,1.0,,16.0,,,,2.0,,,,,1.0,
INNCY162,Cambridge Heath Road,929.0,55.0,984.0,534954.3356,182008.7398,51.52088169,-0.056247043,POINT (-0.0562470425623501 51.52088169470942),E01004208,Tower Hamlets 013C,48,,,,,,,11,5,,,,,38,,,,,,,,,,1,,,,,,,,,,,,,,,,9,,,,,,,,2,,,,,,,,,,,,1,,1,1,,5,6,,,,,,,,,40,,,20,,,2,,,,,,17,,,,4,48,,0,,,1.0,,16.0,,,,2.0,,,,,1.0,
INNCY163,Mare Street,883.0,9.5,892.5,534952.5382,184467.6659,51.54297861,-0.055331464,POINT (-0.0553314640694552 51.54297861029202),E01033704,Hackney 023F,6,,,,,,,6,20,,,,,51,,,,,,,,,,3,,,,,,,,,,,,,,,,7,,,,,,,,5,,,,,,,,,,,,1,,1,3,,1,4,,,,,,,,,57,,,17,,,0,,,,,,25,,,,5,56,,1,,,8.0,,6.0,,,,1.0,,,,,,
INNCY164,Dalston Lane,970.5,5.0,975.5,533992.2029,184966.2732,51.54768784,-0.068981646,POINT (-0.0689816455104612 51.54768784075889),E01001748,Hackney 020A,6,,,,,,,5,34,,,,,39,,,,,,,,,,0,,,,,,,,,,,,,,,,7,,,,,,,,8,,,,,,,,,,,,1,,1,6,,3,5,,,,,,,,,60,,,18,,,1,,,,,,20,,,,5,50,,0,,,4.0,1.0,7.0,,,,1.0,,,,,,
INNCY165,Southampton Road,270.5,10.5,281.0,527821.6652,185339.5464,51.55247252,-0.157785879,POINT (-0.1577858794906724 51.552472520852064),E01000890,Camden 007B,3,,,,,,,1,2,,,,,32,,,,,,,,,,0,,,,,,,,,,,,,,,,4,,,,,,,,3,,,,,,,,,,,,1,,2,0,,2,9,,,,,,,,,22,,,19,,,0,,,,,,14,,,,4,37,,0,,,3.0,,7.0,,,,,,1.0,,,,
INNCY166,Lisson Grove,254.5,33.5,288.0,527290.576,182093.6255,51.52342205,-0.166614298,POINT (-0.1666142977102022 51.52342205096416),E01004659,Westminster 008A,29,,,,,,,16,13,,,,,40,,,,,,,,,,3,,,,,,,,,,,,,,,,10,,,,,,,,13,,,,,,,,,,,,3,,3,0,,10,13,,,,,,,,,54,,,19,,,0,,,,,,24,,,,2,37,,1,,,17.0,,12.0,,2.0,,1.0,1.0,,2.0,,,
INNCY167,Ebury Bridge Road,531.0,60.0,591.0,528505.5847,178280.9469,51.48888353,-0.150498766,POINT (-0.1504987659333305 51.48888352576455),E01004667,Westminster 023C,10,,,,,,,12,17,,,,,46,,,,,,,,,,0,,,,,,,,,,,,,,,,4,,,,,,,,7,,,,,,,,,,,,1,,2,1,,4,10,,,,,,,,,54,,,16,,,5,,,,,,12,,,,4,39,,1,,,8.0,,,1.0,,,,1.0,,,,,
INNCY168,Ladbroke Grove (south),180.0,17.5,197.5,524531.2839,180858.529,51.51293678,-0.206801821,POINT (-0.20680182137097 51.51293677605299),E01002875,Kensington and Chelsea 007E,8,,,,,,,8,16,,,,,32,,,,,,,,,,0,,,,,,,,,,,,,,,,0,,,,,,,,5,,,,,,,,,,,,5,,1,5,,6,3,,,,,,,,,53,,,30,,,0,,,,,,15,,,,2,32,,0,,,6.0,3.0,15.0,,1.0,,2.0,3.0,,,,,
INNCY169,Grosvenor Crescent,499.0,87.0,586.0,528262.5038,179616.5845,51.50094177,-0.15351297,POINT (-0.1535129701800692 51.50094177131688),E01004691,Westminster 019E,10,,,,,,,9,49,,,,,35,,,,,,,,,,0,,,,,,,,,,,,,,,,4,,,,,,,,6,,,,,,,,,,,,3,,1,3,,18,20,,,,,,,,,60,,,13,,,4,,,,,,6,,,,3,33,,1,,,4.0,2.0,28.0,,,,5.0,,,,,,
INNCY170,Stoke Newington Church Street,836.5,3.5,840.0,533260.9155,186558.9273,51.56217296,-0.078918807,POINT (-0.0789188068412023 51.5621729579551),E01001805,Hackney 009B,4,,,,,,,3,12,,,,,35,,,,,,,,,,0,,,,,,,,,,,,,,,,2,,,,,,,,5,,,,,,,,,,,,0,,0,3,,4,1,,,,,,,,,47,,,15,,,0,,,,,,18,,,,2,38,,0,,,6.0,6.0,9.0,,,,,,,,,,
INNCY171,Columbia Road,1528.5,131.5,1660.0,533795.7808,182807.1912,51.52833222,-0.072632548,POINT (-0.0726325479215605 51.52833222031445),E01004311,Tower Hamlets 006A,15,,,,,,,5,58,,,,,36,,,,,,,,,,0,,,,,,,,,,,,,,,,14,,,,,,,,6,,,,,,,,,,,,3,,1,8,,11,8,,,,,,,,,60,,,17,,,5,,,,,,17,,,,3,39,,1,,,2.0,,18.0,,,,,,,,,,
INNCY172,Copenhagen Street,723.0,25.5,748.5,530494.6975,183680.1414,51.53694885,-0.119868888,POINT (-0.1198688883119234 51.53694885460079),E01002710,Islington 019D,8,,,,,,,6,24,,,,,35,,,,,,,,,,1,,,,,,,,,,,,,,,,5,,,,,,,,4,,,,,,,,,,,,2,,1,4,,10,12,,,,,,,,,60,,,14,,,3,,,,,,13,,,,6,37,,1,,,1.0,,13.0,,1.0,,2.0,,,1.0,,,
INNCY173,Cannon Street,519.5,52.0,571.5,534645.6075,180959.5301,51.51152681,-0.06109455,POINT (-0.0610945503791029 51.51152680940994),E01004304,Tower Hamlets 022C,34,,,,,,,13,10,,,,,36,,,,,,,,,,1,,,,,,,,,,,,,,,,8,,,,,,,,6,,,,,,,,,,,,1,,1,3,,9,16,,,,,,,,,49,,,34,,,4,,,,,,14,,,,1,33,,1,,,4.0,,1.0,,,,,3.0,1.0,,,,
INNCY174,Rolls Road,187.5,1.5,189.0,534157.5659,178354.8457,51.48823618,-0.069112694,POINT (-0.0691126935348491 51.48823618403004),E01004041,Southwark 013D,4,,,,,,,2,0,,,,,28,,,,,,,,,,1,,,,,,,,,,,,,,,,3,,,,,,,,4,,,,,,,,,,,,1,,1,3,,3,9,,,,,,,,,18,,,13,,,0,,,,,,11,,,,0,39,,0,,,3.0,,10.0,,,,,,,,,,
INNCY175,Southampton Way,257.0,1.5,258.5,533433.8556,177076.3517,51.47691815,-0.080012643,POINT (-0.0800126427979725 51.47691815258194),E01004011,Southwark 019B,2,,,,,,,6,6,,,,,16,,,,,,,,,,0,,,,,,,,,,,,,,,,2,,,,,,,,2,,,,,,,,,,,,0,,0,1,,7,3,,,,,,,,,0,,,17,,,0,,,,,,3,,,,0,20,,2,,,3.0,1.0,11.0,1.0,,,,,,,,,
INNCY176,Rectory Lane,130.5,0.0,130.5,528275.2012,171182.8287,51.42514595,-0.156387215,POINT (-0.1563872146895218 51.42514595152084),E01004528,Wandsworth 035D,18,,,,,,,5,17,,,,,19,,,,,,,,,,0,,,,,,,,,,,,,,,,5,,,,,,,,4,,,,,,,,,,,,0,,0,1,,1,2,,,,,,,,,51,,,11,,,0,,,,,,18,,,,1,17,,0,,,,,21.0,,,,,,,,,,
INNCY177,Bellevue Road,376.0,2.0,378.0,527504.9641,173398.3445,51.44523034,-0.166662568,POINT (-0.1666625680021976 51.44523034379161),E01004619,Wandsworth 015E,4,,,,,,,2,0,,,,,24,,,,,,,,,,0,,,,,,,,,,,,,,,,1,,,,,,,,0,,,,,,,,,,,,0,,1,1,,1,4,,,,,,,,,8,,,10,,,0,,,,,,2,,,,1,19,,0,,,3.0,,19.0,2.0,1.0,,,,,,,,
INNCY178,Windmill Road,360.5,0.0,360.5,526754.6636,174404.5765,51.4544416,-0.177092959,POINT (-0.1770929593914043 51.45444159957359),E01004621,Wandsworth 019D,2,,,,,,,1,7,,,,,28,,,,,,,,,,0,,,,,,,,,,,,,,,,4,,,,,,,,1,,,,,,,,,,,,0,,2,0,,3,2,,,,,,,,,12,,,14,,,0,,,,,,2,,,,0,30,,0,,,1.0,1.0,18.0,,,,,1.0,1.0,,,,
INNCY179,Sydney Street,267.5,69.0,336.5,527154.6809,178279.5273,51.48917586,-0.1699459,POINT (-0.1699458995455366 51.48917586390991),E01002914,Kensington and Chelsea 019E,7,,,,,,,9,22,,,,,36,,,,,,,,,,2,,,,,,,,,,,,,,,,10,,,,,,,,5,,,,,,,,,,,,3,,4,4,,9,16,,,,,,,,,60,,,31,,,6,,,,,,10,,,,1,36,,0,,,2.0,1.0,14.0,,,,4.0,,,,,,
INNCY180,Porchester Road,322.5,40.5,363.0,525745.9875,181488.6087,51.51833048,-0.189081808,POINT (-0.1890818081878247 51.51833048481995),E01004656,Westminster 014D,9,,,,,,,3,23,,,,,29,,,,,,,,,,0,,,,,,,,,,,,,,,,7,,,,,,,,14,,,,,,,,,,,,1,,0,2,,7,8,,,,,,,,,55,,,19,,,0,,,,,,22,,,,1,35,,0,,,2.0,,20.0,,2.0,,2.0,1.0,,,,,
INNCY181,Gordon House Road,610.5,0.5,611.0,528298.6832,185645.8487,51.555117,-0.15079793,POINT (-0.1507979300566863 51.55511699603803),E01000886,Camden 006A,6,,,,,,,1,6,,,,,25,,,,,,,,,,0,,,,,,,,,,,,,,,,4,,,,,,,,4,,,,,,,,,,,,1,,0,0,,0,7,,,,,,,,,19,,,16,,,1,,,,,,7,,,,4,29,,1,,,1.0,,14.0,,,,4.0,,,,,,
INNCY182,North Road,189.5,2.0,191.5,528319.469,187583.2441,51.57252302,-0.149791676,POINT (-0.1497916762920148 51.57252301743983),E01002008,Haringey 030B,5,,,,,,,1,4,,,,,32,,,,,,,,,,1,,,,,,,,,,,,,,,,0,,,,,,,,2,,,,,,,,,,,,0,,2,0,,1,2,,,,,,,,,14,,,15,,,0,,,,,,2,,,,1,34,,0,,,3.0,,27.0,,,,1.0,,,1.0,,,
INNCY183,Queensbridge Road,823.0,38.0,861.0,533928.9633,183824.3701,51.53744136,-0.070327278,POINT (-0.0703272777598647 51.5374413626555),E01001772,Hackney 024A,4,,,,,,,1,11,,,,,26,,,,,,,,,,0,,,,,,,,,,,,,,,,4,,,,,,,,4,,,,,,,,,,,,0,,1,2,,7,1,,,,,,,,,26,,,15,,,2,,,,,,10,,,,3,37,,0,,,2.0,,2.0,,,,2.0,,1.0,,,1.0,
INNCY184,Shepherdess Walk,1010.5,109.5,1120.0,532371.7598,183191.3113,51.5321194,-0.093004276,POINT (-0.0930042763966466 51.53211939523844),E01001782,Hackney 026C,36,,,,,,,9,24,,,,,37,,,,,,,,,,1,,,,,,,,,,,,,,,,10,,,,,,,,9,,,,,,,,,,,,4,,1,4,,9,19,,,,,,,,,28,,,14,,,7,,,,,,17,,,,1,33,,2,,,,,16.0,,,,,,,,,,
INNCY184,Shepherdess Walk,1010.5,109.5,1120.0,532371.7598,183191.3113,51.5321194,-0.093004276,POINT (-0.0930042763966466 51.53211939523844),E01001782,Hackney 026C,36,,,,,,,9,24,,,,,37,,,,,,,,,,1,,,,,,,,,,,,,,,,10,,,,,,,,9,,,,,,,,,,,,4,,1,4,,9,19,,,,,,,,,28,,,14,,,7,,,,,,17,,,,1,33,,2,,,,,16.0,,,,,,,,,,
INNCY185,Dunbridge Street,307.5,58.5,366.0,534433.2725,182320.7705,51.52380984,-0.063633749,POINT (-0.0636337485681219 51.52380983658362),E01004205,Tower Hamlets 013A,22,,,,,,,10,29,,,,,26,,,,,,,,,,1,,,,,,,,,,,,,,,,9,,,,,,,,5,,,,,,,,,,,,3,,4,5,,11,9,,,,,,,,,60,,,28,,,5,,,,,,15,,,,3,29,,2,,,6.0,,16.0,,,,,1.0,,,,,
INNCY186,Globe Road,397.5,41.0,438.5,535445.0651,182472.0272,51.52492754,-0.049000444,POINT (-0.0490004440621923 51.52492753835397),E01032787,Tower Hamlets 011F,18,,,,,,,8,12,,,,,34,,,,,,,,,,0,,,,,,,,,,,,,,,,0,,,,,,,,5,,,,,,,,,,,,1,,3,0,,6,3,,,,,,,,,50,,,26,,,1,,,,,,18,,,,4,37,,2,,,6.0,2.0,12.0,,2.0,,1.0,5.0,,,,,
INNCY187,Sternhold Avenue,315.5,0.5,316.0,530143.1611,172778.4119,51.43905964,-0.128949588,POINT (-0.1289495877214312 51.43905964230606),E01003131,Lambeth 026B,0,,,,,,,6,9,,,,,33,,,,,,,,,,0,,,,,,,,,,,,,,,,4,,,,,,,,3,,,,,,,,,,,,0,,0,1,,2,9,,,,,,,,,28,,,14,,,0,,,,,,11,,,,1,35,,1,,,1.0,,7.0,1.0,,,1.0,,,,,,
INNCY188,Sanford Street,132.5,0.5,133.0,536120.9046,177518.875,51.4802552,-0.041174219,POINT (-0.041174218939293 51.48025519629455),E01003301,Lewisham 003C,3,,,,,,,2,6,,,,,34,,,,,,,,,,0,,,,,,,,,,,,,,,,1,,,,,,,,4,,,,,,,,,,,,0,,0,3,,8,0,,,,,,,,,36,,,11,,,2,,,,,,11,,,,3,35,,1,,,,,11.0,,,,,,,,,,
INNCY189,Milkwood Road,523.0,2.5,525.5,531892.6476,174903.1837,51.4577499,-0.103002246,POINT (-0.1030022459609388 51.45774989530776),E01003071,Lambeth 018D,5,,,,,,,2,23,,,,,34,,,,,,,,,,0,,,,,,,,,,,,,,,,5,,,,,,,,2,,,,,,,,,,,,0,,0,0,,3,8,,,,,,,,,54,,,11,,,1,,,,,,10,,,,3,37,,0,,,,,26.0,,,,1.0,,,,,,
INNCY190,Royal Hospital Road,416.5,57.0,473.5,527831.4438,178032.8679,51.48680673,-0.160292904,POINT (-0.1602929039228912 51.48680673337152),E01002901,Kensington and Chelsea 018C,3,,,,,,,7,11,,,,,24,,,,,,,,,,1,,,,,,,,,,,,,,,,8,,,,,,,,3,,,,,,,,,,,,0,,3,1,,7,0,,,,,,,,,32,,,15,,,5,,,,,,6,,,,1,20,,0,,,3.0,,10.0,,,,,,,,,,
INNCY191,Palace Gate,258.5,45.5,304.0,526141.1898,179590.3121,51.5011826,-0.184067503,POINT (-0.1840675028403154 51.501182601716536),E01002891,Kensington and Chelsea 010D,8,,,,,,,6,26,,,,,31,,,,,,,,,,1,,,,,,,,,,,,,,,,7,,,,,,,,4,,,,,,,,,,,,2,,7,3,,4,10,,,,,,,,,40,,,11,,,3,,,,,,6,,,,1,20,,0,,,,,28.0,,,,,,,,,,
INNCY192,Paddenswick Road,518.5,31.5,550.0,522431.1679,179259.0169,51.4990202,-0.237605293,POINT (-0.2376052928666615 51.49902019589069),E01001928,Hammersmith and Fulham 011A,10,,,,,,,9,10,,,,,32,,,,,,,,,,0,,,,,,,,,,,,,,,,4,,,,,,,,5,,,,,,,,,,,,0,,0,3,,7,3,,,,,,,,,36,,,20,,,1,,,,,,11,,,,1,35,,0,,,2.0,,16.0,,,,3.0,,,,1.0,,
INNCY193,Kensington Park Road,232.0,28.5,260.5,524946.9751,180711.1012,51.51152015,-0.200866765,POINT (-0.2008667646080519 51.51152015276769),E01002882,Kensington and Chelsea 006A,10,,,,,,,12,18,,,,,35,,,,,,,,,,0,,,,,,,,,,,,,,,,9,,,,,,,,9,,,,,,,,,,,,6,,2,4,,6,6,,,,,,,,,60,,,32,,,0,,,,,,14,,,,2,36,,1,,,3.0,,23.0,,,,,,,,,,
INNCY194,Mortimer Road,147.0,0.0,147.0,523687.3772,182956.6085,51.53197758,-0.218221005,POINT (-0.2182210054220954 51.53197758332838),E01000586,Brent 032E,5,,,,,,,3,7,,,,,25,,,,,,,,,,0,,,,,,,,,,,,,,,,6,,,,,,,,1,,,,,,,,,,,,1,,1,2,,9,1,,,,,,,,,22,,,13,,,1,,,,,,7,,,,3,32,,1,,,1.0,1.0,17.0,,,,,,,,,,
INNCY195,Manor Road,451.0,4.5,455.5,533604.6933,186929.6512,51.56542313,-0.073821559,POINT (-0.0738215590761303 51.56542313002696),E01001805,Hackney 009B,4,,,,,,,2,8,,,,,31,,,,,,,,,,0,,,,,,,,,,,,,,,,1,,,,,,,,3,,,,,,,,,,,,0,,0,1,,2,1,,,,,,,,,40,,,20,,,0,,,,,,16,,,,1,31,,0,,,1.0,,20.0,,,,,,,,,,
INNCY196,Liverpool Road,1018.5,1.5,1020.0,531386.3101,184379.5312,51.54302729,-0.106759963,POINT (-0.1067599633692414 51.54302729352659),E01002790,Islington 016D,3,,,,,,,6,27,,,,,35,,,,,,,,,,2,,,,,,,,,,,,,,,,6,,,,,,,,8,,,,,,,,,,,,3,,0,0,,9,9,,,,,,,,,57,,,12,,,1,,,,,,13,,,,5,40,,0,,,1.0,,21.0,,,,,1.0,1.0,,,,
INNCY197,Southgate Road,791.0,0.5,791.5,532963.6398,184553.3414,51.54422016,-0.083962342,POINT (-0.0839623423083662 51.544220160873984),E01001751,Hackney 021D,8,,,,,,,9,18,,,,,48,,,,,,,,,,0,,,,,,,,,,,,,,,,0,,,,,,,,5,,,,,,,,,,,,2,,0,3,,10,6,,,,,,,,,36,,,11,,,1,,,,,,20,,,,5,55,,0,,,5.0,,9.0,,1.0,,,,,,,,
INNCY198,Albion Road,332.5,1.0,333.5,532948.8399,186396.9237,51.56079072,-0.083479431,POINT (-0.0834794314919721 51.56079072159368),E01001741,Hackney 009A,4,,,,,,,3,11,,,,,30,,,,,,,,,,0,,,,,,,,,,,,,,,,2,,,,,,,,3,,,,,,,,,,,,0,,0,3,,4,3,,,,,,,,,34,,,11,,,0,,,,,,17,,,,2,30,,0,,,4.0,,23.0,,,,,,,,,,
INNCY199,Kings Avenue,389.5,2.0,391.5,529999.0456,174160.9962,51.45151765,-0.130514488,POINT (-0.1305144883731751 51.45151765463524),E01003159,Lambeth 022C,6,,,,,,,3,1,,,,,17,,,,,,,,,,0,,,,,,,,,,,,,,,,4,,,,,,,,2,,,,,,,,,,,,0,,0,0,,3,3,,,,,,,,,13,,,16,,,0,,,,,,10,,,,0,25,,0,,,1.0,,12.0,,,,1.0,,,,,,
INNCY200,Atlantic Road,616.0,4.5,620.5,531325.7831,175231.2398,51.46082968,-0.111034879,POINT (-0.1110348792049243 51.46082968097048),E01003052,Lambeth 016C,11,,,,,,,15,36,,,,,48,,,,,,,,,,1,,,,,,,,,,,,,,,,9,,,,,,,,5,,,,,,,,,,,,3,,4,4,,5,14,,,,,,,,,60,,,16,,,1,,,,,,14,,,,5,58,,0,,,5.0,,10.0,,,,5.0,,,,,,
INNCY201,Brockley Road,239.0,0.0,239.0,536492.6166,175848.5531,51.46515582,-0.03646936,POINT (-0.0364693595462202 51.46515582399232),E01003212,Lewisham 005D,0,,,,,,,3,5,,,,,34,,,,,,,,,,0,,,,,,,,,,,,,,,,2,,,,,,,,3,,,,,,,,,,,,0,,0,0,,5,1,,,,,,,,,18,,,11,,,0,,,,,,3,,,,2,20,,0,,,2.0,,13.0,1.0,,,,,,,,,
INNCY202,North End Road,533.0,51.5,584.5,524876.3644,177885.3501,51.48614062,-0.20288293,POINT (-0.2028829297338677 51.48614061788151),E01001912,Hammersmith and Fulham 015E,9,,,,,,,15,13,,,,,29,,,,,,,,,,2,,,,,,,,,,,,,,,,3,,,,,,,,7,,,,,,,,,,,,1,,0,1,,4,8,,,,,,,,,39,,,13,,,2,,,,,,27,,,,5,31,,0,,,2.0,,17.0,,3.0,,3.0,,,,,,
INNCY203,Lower Richmond Road,1485.5,2.0,1487.5,523193.1599,175871.5665,51.46841117,-0.227814008,POINT (-0.2278140083221423 51.46841117180477),E01004604,Wandsworth 006A,4,,,,,,,4,3,,,,,13,,,,,,,,,,0,,,,,,,,,,,,,,,,2,,,,,,,,5,,,,,,,,,,,,0,,2,0,,3,1,,,,,,,,,16,,,7,,,0,,,,,,3,,,,0,12,,0,,,1.0,,19.0,,,,1.0,,,,,,
INNCY204,Bedford Hill,205.5,0.5,206.0,528767.1675,172952.0722,51.44093446,-0.148672482,POINT (-0.1486724819079656 51.44093446070071),E01004484,Wandsworth 026E,10,,,,,,,8,14,,,,,22,,,,,,,,,,0,,,,,,,,,,,,,,,,5,,,,,,,,8,,,,,,,,,,,,0,,1,1,,3,1,,,,,,,,,39,,,18,,,0,,,,,,7,,,,2,23,,0,,,1.0,,10.0,,,,1.0,,,,,,
INNCY205,Exhibition Road,713.0,304.0,1017.0,526818.2824,179438.9354,51.49967083,-0.174372258,POINT (-0.1743722584821036 51.49967082835009),E01004688,Westminster 019B,6,,,,,,,9,18,,,,,40,,,,,,,,,,0,,,,,,,,,,,,,,,,5,,,,,,,,3,,,,,,,,,,,,3,,9,5,,11,15,,,,,,,,,53,,,13,,,4,,,,,,10,,,,3,38,,2,,,44.0,,,,,,,,,,,,
INNCY205,Exhibition Road,713.0,304.0,1017.0,526818.2824,179438.9354,51.49967083,-0.174372258,POINT (-0.1743722584821036 51.49967082835009),E01004688,Westminster 019B,6,,,,,,,9,18,,,,,40,,,,,,,,,,0,,,,,,,,,,,,,,,,5,,,,,,,,3,,,,,,,,,,,,3,,9,5,,11,15,,,,,,,,,53,,,13,,,4,,,,,,9,,,,3,38,,2,,,44.0,,,,,,,,,,,,
INNCY206,Highgate West Hill,230.5,2.0,232.5,528211.0299,187202.1932,51.56912329,-0.15149445,POINT (-0.1514944504582595 51.56912328506498),E01000913,Camden 001E,4,,,,,,,1,3,,,,,28,,,,,,,,,,1,,,,,,,,,,,,,,,,0,,,,,,,,1,,,,,,,,,,,,0,,2,0,,1,0,,,,,,,,,10,,,11,,,0,,,,,,2,,,,0,29,,0,,,,,7.0,,,,1.0,,,,,,
INNCY207,East Acton Lane,124.5,0.0,124.5,520998.3577,180414.3462,51.5097117,-0.25784059,POINT (-0.2578405904268666 51.509711699342894),E01001242,Ealing 024C,11,,,,,,,3,2,,,,,33,,,,,,,,,,0,,,,,,,,,,,,,,,,4,,,,,,,,3,,,,,,,,,,,,1,,1,0,,4,2,,,,,,,,,24,,,9,,,0,,,,,,8,,,,1,29,,0,,,,,13.0,,,,2.0,,,,,,
INNCY208,South Africa Road,211.5,1.5,213.0,523190.942,180795.797,51.51266655,-0.22612906,POINT (-0.2261290596063949 51.51266655164831),E01001874,Hammersmith and Fulham 001A,5,,,,,,,3,9,,,,,20,,,,,,,,,,1,,,,,,,,,,,,,,,,8,,,,,,,,3,,,,,,,,,,,,2,,1,0,,4,4,,,,,,,,,51,,,15,,,4,,,,,,11,,,,3,29,,2,,,,,6.0,,,,1.0,,,,,,
INNCY209,Circus Road,199.5,19.5,219.0,526778.6567,183138.6664,51.53292871,-0.17361332,POINT (-0.1736133197393229 51.5329287120088),E01004647,Westminster 001A,3,,,,,,,3,2,,,,,18,,,,,,,,,,0,,,,,,,,,,,,,,,,2,,,,,,,,3,,,,,,,,,,,,1,,1,0,,5,2,,,,,,,,,14,,,15,,,0,,,,,,6,,,,1,29,,0,,,1.0,,9.0,,,,,,2.0,,,,
INNCY210,Barnsbury Road,1825.5,6.0,1831.5,531110.859,183608.862,51.53616566,-0.111016529,POINT (-0.1110165288422189 51.536165663097634),E01002696,Islington 020A,9,,,,,,,16,32,,,,,39,,,,,,,,,,3,,,,,,,,,,,,,,,,11,,,,,,,,5,,,,,,,,,,,,4,,2,5,,9,20,,,,,,,,,60,,,18,,,2,,,,,,15,,,,1,35,,0,,,1.0,,23.0,,,,1.0,,,,,1.0,
INNCY210,Barnsbury Road,1825.5,6.0,1831.5,531110.859,183608.862,51.53616566,-0.111016529,POINT (-0.1110165288422189 51.536165663097634),E01002696,Islington 020A,9,,,,,,,16,32,,,,,39,,,,,,,,,,3,,,,,,,,,,,,,,,,11,,,,,,,,5,,,,,,,,,,,,4,,2,5,,9,20,,,,,,,,,60,,,18,,,2,,,,,,15,,,,1,34,,0,,,1.0,,23.0,,,,1.0,,,,,1.0,
INNCY211,Campbell Road,294.0,15.0,309.0,537451.0968,182568.9094,51.5253139,-0.020064879,POINT (-0.0200648785027375 51.52531389753561),E01004267,Tower Hamlets 012D,9,,,,,,,3,0,,,,,33,,,,,,,,,,1,,,,,,,,,,,,,,,,5,,,,,,,,2,,,,,,,,,,,,0,,0,2,,2,1,,,,,,,,,12,,,17,,,0,,,,,,7,,,,5,35,,2,,,,,,,,,,,,,,,
INNCY212,Drayton Park,1190.5,9.0,1199.5,531454.1505,185633.4522,51.55427984,-0.10531416,POINT (-0.1053141604918427 51.55427983561308),E01033492,Islington 011I,6,,,,,,,4,9,,,,,26,,,,,,,,,,0,,,,,,,,,,,,,,,,7,,,,,,,,7,,,,,,,,,,,,0,,2,1,,10,10,,,,,,,,,38,,,15,,,0,,,,,,13,,,,3,15,,4,,,,,15.0,,,,,,,,,,
INNCY212,Drayton Park,1190.5,9.0,1199.5,531454.1505,185633.4522,51.55427984,-0.10531416,POINT (-0.1053141604918427 51.55427983561308),E01033492,Islington 011I,6,,,,,,,4,9,,,,,26,,,,,,,,,,0,,,,,,,,,,,,,,,,7,,,,,,,,7,,,,,,,,,,,,0,,2,1,,10,10,,,,,,,,,38,,,15,,,0,,,,,,13,,,,3,15,,4,,,,,15.0,,,,,,,,,,
INNCY213,Wapping High Street,66.5,21.0,87.5,535126.8223,180311.5556,51.50558917,-0.054412424,POINT (-0.0544124237442499 51.50558916572471),E01004297,Tower Hamlets 027C,1,,,,,,,0,4,,,,,23,,,,,,,,,,0,,,,,,,,,,,,,,,,4,,,,,,,,2,,,,,,,,,,,,0,,2,1,,10,8,,,,,,,,,9,,,8,,,0,,,,,,2,,,,4,30,,0,,,2.0,,5.0,,,,,,,,,,
INNCY214,Stoke Newington Church Street,1103.5,3.5,1107.0,532781.5394,186342.1894,51.56033823,-0.085912106,POINT (-0.0859121059051161 51.56033823355653),E01001806,Hackney 008D,2,,,,,,,1,4,,,,,26,,,,,,,,,,0,,,,,,,,,,,,,,,,1,,,,,,,,1,,,,,,,,,,,,0,,1,1,,3,2,,,,,,,,,18,,,10,,,0,,,,,,8,,,,0,27,,0,,,6.0,6.0,9.0,,,,,,,,,,
INNCY215,Lauriston Road,389.5,11.5,401.0,535666.915,183990.6725,51.53852116,-0.045220028,POINT (-0.0452200280417316 51.53852115610268),E01001841,Hackney 022C,1,,,,,,,2,3,,,,,19,,,,,,,,,,2,,,,,,,,,,,,,,,,3,,,,,,,,2,,,,,,,,,,,,1,,2,0,,9,3,,,,,,,,,16,,,10,,,0,,,,,,14,,,,0,28,,1,,,1.0,,32.0,,,,1.0,,,,,,
INNCY216,Plumbers Row,115.0,11.5,126.5,534234.7726,181558.2887,51.51700511,-0.066783419,POINT (-0.0667834193800944 51.5170051106228),E01004325,Tower Hamlets 021D,50,,,,,,,16,30,,,,,40,,,,,,,,,,2,,,,,,,,,,,,,,,,14,,,,,,,,5,,,,,,,,,,,,3,,2,7,,10,19,,,,,,,,,60,,,39,,,6,,,,,,23,,,,6,38,,6,,,5.0,,17.0,,,,2.0,,,,,,
INNCY216,Plumbers Row,115.0,11.5,126.5,534234.7726,181558.2887,51.51700511,-0.066783419,POINT (-0.0667834193800944 51.5170051106228),E01004325,Tower Hamlets 021D,50,,,,,,,16,30,,,,,40,,,,,,,,,,2,,,,,,,,,,,,,,,,14,,,,,,,,5,,,,,,,,,,,,3,,2,7,,10,19,,,,,,,,,60,,,39,,,6,,,,,,23,,,,6,38,,6,,,5.0,,17.0,,,,2.0,,,,,,
INNCY217,Surrey Quays Road,58.5,0.0,58.5,535803.6593,179156.9161,51.49505122,-0.045110347,POINT (-0.0451103471534141 51.49505122411888),E01004031,Southwark 007B,8,,,,,,,5,4,,,,,36,,,,,,,,,,0,,,,,,,,,,,,,,,,5,,,,,,,,5,,,,,,,,,,,,1,,2,0,,6,8,,,,,,,,,29,,,9,,,1,,,,,,10,,,,5,40,,0,,,9.0,14.0,8.0,,2.0,,,2.0,,,,,
INNCY218,Brixton Water Lane,315.5,2.0,317.5,530859.9289,174630.9117,51.45554252,-0.117958607,POINT (-0.1179586074668399 51.45554251812863),E01003176,Lambeth 016E,9,,,,,,,7,17,,,,,29,,,,,,,,,,1,,,,,,,,,,,,,,,,3,,,,,,,,6,,,,,,,,,,,,1,,2,2,,5,9,,,,,,,,,33,,,6,,,1,,,,,,10,,,,0,36,,0,,,8.0,,9.0,,,,,,,,,,
INNCY219,Peckham Rye,885.0,0.0,885.0,534610.7969,175437.6208,51.46191334,-0.06369925,POINT (-0.0636992499987853 51.46191333865512),E01004015,Southwark 028C,8,,,,,,,2,11,,,,,31,,,,,,,,,,0,,,,,,,,,,,,,,,,4,,,,,,,,1,,,,,,,,,,,,0,,1,1,,5,2,,,,,,,,,29,,,9,,,0,,,,,,7,,,,0,37,,0,,,,,13.0,,,,1.0,,,,,,
INNCY220,Wickham Road,211.0,0.0,211.0,537036.3949,176326.4063,51.46931862,-0.028461109,POINT (-0.0284611090186793 51.46931861603365),E01003210,Lewisham 005C,7,,,,,,,5,14,,,,,35,,,,,,,,,,0,,,,,,,,,,,,,,,,1,,,,,,,,5,,,,,,,,,,,,1,,0,3,,2,4,,,,,,,,,39,,,8,,,0,,,,,,18,,,,5,40,,1,,,,,31.0,,,,1.0,,,,,,
INNCY221,Sydenham Hill,110.5,0.0,110.5,534063.2836,172109.4334,51.43213457,-0.072835483,POINT (-0.0728354830092256 51.43213456899684),E01003945,Southwark 033A,1,,,,,,,0,1,,,,,30,,,,,,,,,,0,,,,,,,,,,,,,,,,0,,,,,,,,0,,,,,,,,,,,,0,,1,0,,1,2,,,,,,,,,0,,,7,,,0,,,,,,2,,,,1,20,,0,,,,,10.0,,,,,,,,,,
INNCY222,Gipsy Road,98.5,0.5,99.0,532959.3359,171502.2572,51.42693802,-0.088934373,POINT (-0.0889343731041277 51.42693802352203),E01003067,Lambeth 033C,4,,,,,,,0,4,,,,,30,,,,,,,,,,0,,,,,,,,,,,,,,,,1,,,,,,,,0,,,,,,,,,,,,0,,2,0,,3,7,,,,,,,,,9,,,17,,,0,,,,,,3,,,,2,31,,0,,,,,33.0,1.0,,,1.0,,,,,,
INNCY223,Blackshaw Road,254.5,0.0,254.5,527107.5522,170997.5117,51.42374333,-0.173238893,POINT (-0.173238892745137 51.423743331965206),E01004617,Wandsworth 034D,21,,,,,,,10,28,,,,,38,,,,,,,,,,0,,,,,,,,,,,,,,,,6,,,,,,,,3,,,,,,,,,,,,0,,0,1,,6,5,,,,,,,,,57,,,7,,,1,,,,,,14,,,,2,31,,2,,,,,27.0,,,,,,,,,,
INNCY224,Aboyne Road,176.0,0.0,176.0,526607.5222,172386.2842,51.43633609,-0.17993086,POINT (-0.179930860088525 51.43633608597722),E01004491,Wandsworth 031B,6,,,,,,,5,5,,,,,31,,,,,,,,,,0,,,,,,,,,,,,,,,,3,,,,,,,,4,,,,,,,,,,,,0,,1,0,,3,1,,,,,,,,,15,,,9,,,0,,,,,,6,,,,3,33,,0,,,,,,,,,,,,,,7.0,
INNCY225,Beaufort Street,793.5,104.5,898.0,526732.8471,177787.3881,51.48484766,-0.176194867,POINT (-0.1761948673132653 51.48484765557774),E01002911,Kensington and Chelsea 019D,6,,,,,,,5,18,,,,,32,,,,,,,,,,2,,,,,,,,,,,,,,,,8,,,,,,,,7,,,,,,,,,,,,3,,3,4,,6,6,,,,,,,,,53,,,15,,,1,,,,,,11,,,,0,40,,0,,,2.0,,7.0,,,,1.0,2.0,,,,,
INNCY226,Plough Road,528.5,26.0,554.5,526772.9923,175419.7659,51.46356098,-0.17646572,POINT (-0.1764657195044744 51.4635609772236),E01004537,Wandsworth 007B,0,,,,,,,10,12,,,,,48,,,,,,,,,,0,,,,,,,,,,,,,,,,12,,,,,,,,3,,,,,,,,,,,,0,,1,0,,5,5,,,,,,,,,20,,,11,,,1,,,,,,10,,,,2,52,,1,,,1.0,,1.0,,1.0,,,,,,,,
INNCY227,Elgin Avenue,165.0,1.0,166.0,525454.9616,182411.0046,51.52668466,-0.192945848,POINT (-0.1929458484621398 51.5266846628418),E01004708,Westminster 006D,7,,,,,,,0,2,,,,,29,,,,,,,,,,1,,,,,,,,,,,,,,,,3,,,,,,,,5,,,,,,,,,,,,0,,0,0,,5,3,,,,,,,,,25,,,23,,,0,,,,,,11,,,,2,35,,0,,,2.0,,37.0,,1.0,,2.0,1.0,,1.0,,,
INNCY228,Salusbury Road,107.5,2.5,110.0,524305.732,183872.6962,51.54007481,-0.208987862,POINT (-0.2089878615259363 51.54007480724427),E01000580,Brent 032B,9,,,,,,,7,9,,,,,13,,,,,,,,,,0,,,,,,,,,,,,,,,,5,,,,,,,,2,,,,,,,,,,,,0,,0,1,,6,1,,,,,,,,,32,,,10,,,1,,,,,,8,,,,6,16,,0,,,12.0,,11.0,,,,,3.0,,,,,
INNCY229,Ebury Bridge,296.5,88.5,385.0,528623.9838,178439.6514,51.49028288,-0.148736624,POINT (-0.148736623707943 51.49028287579838),E01004750,Westminster 023E,16,,,,,,,16,20,,,,,56,,,,,,,,,,0,,,,,,,,,,,,,,,,4,,,,,,,,8,,,,,,,,,,,,1,,1,1,,7,15,,,,,,,,,53,,,20,,,4,,,,,,13,,,,4,57,,1,,,5.0,8.0,2.0,,1.0,,,,,,,,
INNCY230,Prince of Wales Road,713.0,12.0,725.0,528615.4667,184685.4236,51.5464139,-0.146582004,POINT (-0.1465820042549668 51.546413901528894),E01000927,Camden 007F,19,,,,,,,4,25,,,,,39,,,,,,,,,,0,,,,,,,,,,,,,,,,3,,,,,,,,5,,,,,,,,,,,,1,,1,3,,4,12,,,,,,,,,60,,,13,,,7,,,,,,16,,,,4,40,,1,,,,,16.0,,,,,,,,,,
INNCY231,Hazellville Road,137.0,8.5,145.5,530002.5333,187302.8344,51.56961789,-0.125623224,POINT (-0.1256232243607936 51.569617890646605),E01002758,Islington 001C,4,,,,,,,6,5,,,,,36,,,,,,,,,,0,,,,,,,,,,,,,,,,4,,,,,,,,7,,,,,,,,,,,,0,,0,3,,9,4,,,,,,,,,20,,,16,,,0,,,,,,17,,,,2,40,,1,,,,,35.0,,,,,,,,,,
INNCY232,Riversdale Road,597.5,17.0,614.5,532319.9479,186331.2325,51.56034815,-0.092571083,POINT (-0.0925710830686089 51.560348146598365),E01002741,Islington 009B,3,,,,,,,3,8,,,,,33,,,,,,,,,,0,,,,,,,,,,,,,,,,2,,,,,,,,4,,,,,,,,,,,,0,,0,0,,3,4,,,,,,,,,28,,,15,,,0,,,,,,10,,,,0,36,,0,,,2.0,,40.0,,,,,,,,,,
INNCY233,Wapping Lane,82.0,28.0,110.0,534827.8564,180557.1453,51.50786745,-0.058623616,POINT (-0.0586236156537796 51.50786744538471),E01004296,Tower Hamlets 026D,3,,,,,,,3,5,,,,,20,,,,,,,,,,0,,,,,,,,,,,,,,,,9,,,,,,,,5,,,,,,,,,,,,1,,3,1,,9,11,,,,,,,,,16,,,17,,,3,,,,,,11,,,,2,32,,0,,,11.0,,18.0,,1.0,,,,,,,,
INNCY234,St. James's Road,274.5,0.0,274.5,534354.8702,179285.9092,51.49655625,-0.065918552,POINT (-0.0659185517073981 51.496556246005966),E01004022,Southwark 004C,5,,,,,,,5,8,,,,,31,,,,,,,,,,2,,,,,,,,,,,,,,,,5,,,,,,,,5,,,,,,,,,,,,0,,2,0,,5,9,,,,,,,,,17,,,13,,,0,,,,,,15,,,,2,34,,0,,,6.0,,11.0,,,,,,,,,,
INNCY235,Leigham Court Road,245.0,0.0,245.0,530349.1144,172579.6089,51.43722574,-0.12606125,POINT (-0.126061249542404 51.43722574020422),E01003151,Lambeth 026E,6,,,,,,,10,10,,,,,32,,,,,,,,,,0,,,,,,,,,,,,,,,,4,,,,,,,,3,,,,,,,,,,,,1,,0,1,,2,15,,,,,,,,,33,,,11,,,0,,,,,,14,,,,1,39,,1,,,,,2.0,,,,,,,,,,
INNCY236,Asylum Road,279.5,1.0,280.5,534935.2235,177128.8167,51.47703383,-0.058386969,POINT (-0.058386969342228 51.47703383274739),E01004003,Southwark 023B,5,,,,,,,4,8,,,,,36,,,,,,,,,,0,,,,,,,,,,,,,,,,2,,,,,,,,3,,,,,,,,,,,,1,,1,1,,5,2,,,,,,,,,27,,,11,,,1,,,,,,10,,,,1,36,,0,,,1.0,,19.0,,,,,,,,,,
INNCY237,Emmanuel Road,280.5,0.0,280.5,529665.0135,173114.9656,51.44219373,-0.135701878,POINT (-0.1357018783882191 51.44219372613801),E01003158,Lambeth 023D,4,,,,,,,5,8,,,,,26,,,,,,,,,,0,,,,,,,,,,,,,,,,3,,,,,,,,2,,,,,,,,,,,,0,,0,1,,2,5,,,,,,,,,16,,,10,,,0,,,,,,7,,,,2,34,,1,,,2.0,,17.0,,,,1.0,,,,,1.0,
INNCY238,Prince of Wales Drive,124.5,28.0,152.5,527849.4015,176717.3944,51.47498071,-0.160510149,POINT (-0.1605101485361935 51.47498070879458),E01004560,Wandsworth 001A,2,,,,,,,3,3,,,,,16,,,,,,,,,,0,,,,,,,,,,,,,,,,6,,,,,,,,4,,,,,,,,,,,,0,,0,0,,8,2,,,,,,,,,19,,,10,,,0,,,,,,5,,,,0,18,,0,,,,,19.0,,1.0,,1.0,,,,,,
INNCY239,Fernhead Road,202.5,2.0,204.5,524751.0725,183027.6181,51.53238195,-0.202868904,POINT (-0.2028689041018103 51.53238194954547),E01004723,Westminster 005F,6,,,,,,,5,5,,,,,29,,,,,,,,,,0,,,,,,,,,,,,,,,,8,,,,,,,,4,,,,,,,,,,,,0,,0,0,,11,2,,,,,,,,,17,,,17,,,1,,,,,,12,,,,3,33,,1,,,9.0,3.0,18.0,,,,1.0,,1.0,1.0,,,
INNCY240,West Heath Road,85.0,0.5,85.5,525984.2121,186308.9189,51.56159704,-0.183926585,POINT (-0.1839265853326917 51.56159703617277),E01000899,Camden 002E,1,,,,,,,4,2,,,,,9,,,,,,,,,,0,,,,,,,,,,,,,,,,1,,,,,,,,0,,,,,,,,,,,,1,,2,1,,3,1,,,,,,,,,16,,,9,,,0,,,,,,1,,,,1,11,,1,,,,,8.0,,,,,,,,,,
INNCY241,Bramley Road,333.0,11.0,344.0,523766.9585,180867.8864,51.51318866,-0.217807303,POINT (-0.2178073029292484 51.51318866000708),E01002870,Kensington and Chelsea 005A,4,,,,,,,5,6,,,,,27,,,,,,,,,,0,,,,,,,,,,,,,,,,0,,,,,,,,3,,,,,,,,,,,,2,,2,2,,6,5,,,,,,,,,31,,,18,,,4,,,,,,11,,,,4,34,,1,,,2.0,,12.0,,,,3.0,,,,,1.0,
INNCY242,Tollington Park,194.5,6.0,200.5,530882.7101,187055.5852,51.56719256,-0.113022782,POINT (-0.1130227820132389 51.56719255935791),E01002805,Islington 003B,6,,,,,,,9,10,,,,,30,,,,,,,,,,0,,,,,,,,,,,,,,,,6,,,,,,,,0,,,,,,,,,,,,1,,0,1,,7,11,,,,,,,,,58,,,12,,,3,,,,,,14,,,,2,36,,1,,,4.0,,20.0,,,,1.0,,,,,,
INNCY243,Englefield Road,619.5,1.0,620.5,533163.2692,184400.4552,51.54279925,-0.081143077,POINT (-0.081143076885016 51.54279924691753),E01001751,Hackney 021D,8,,,,,,,8,19,,,,,38,,,,,,,,,,0,,,,,,,,,,,,,,,,8,,,,,,,,4,,,,,,,,,,,,0,,1,1,,8,6,,,,,,,,,39,,,15,,,2,,,,,,17,,,,4,39,,0,,,1.0,,13.0,,,,1.0,,,1.0,,,
INNCY244,North Road,81.5,2.0,83.5,530379.6212,185042.5814,51.54921907,-0.121022858,POINT (-0.1210228577468199 51.54921906883058),E01002765,Islington 015D,1,,,,,,,4,4,,,,,38,,,,,,,,,,0,,,,,,,,,,,,,,,,9,,,,,,,,4,,,,,,,,,,,,2,,2,0,,5,7,,,,,,,,,14,,,11,,,0,,,,,,10,,,,4,47,,1,,,,,32.0,,,,3.0,,,,,,
INNCY245,Waterden Road,44.5,4.5,49.0,537333.8355,185014.0495,51.54731453,-0.020801129,POINT (-0.0208011289702481 51.54731453093215),E01001849,Hackney 018D,0,,,,,,,0,14,,,,,24,,,,,,,,,,0,,,,,,,,,,,,,,,,5,,,,,,,,0,,,,,,,,,,,,0,,0,0,,2,6,,,,,,,,,23,,,2,,,1,,,,,,1,,,,1,30,,2,,,,,,,1.0,,1.0,,,,,1.0,
INNCY246,Marsh Wall,246.5,12.0,258.5,537884.9766,179761.4131,51.49997995,-0.014911704,POINT (-0.0149117044806428 51.49997994816025),E01004215,Tower Hamlets 028A,51,,,,,,,36,26,,,,,34,,,,,,,,,,0,,,,,,,,,,,,,,,,9,,,,,,,,4,,,,,,,,,,,,1,,0,2,,4,16,,,,,,,,,60,,,11,,,9,,,,,,11,,,,6,31,,3,,,2.0,,6.0,,4.0,,2.0,,,,,,
INNCY247,Lawrie Park Road,68.5,0.0,68.5,534931.4061,170798.2588,51.42014592,-0.060853745,POINT (-0.0608537451205339 51.42014592248432),E01000745,Bromley 005D,2,,,,,,,6,5,,,,,29,,,,,,,,,,0,,,,,,,,,,,,,,,,5,,,,,,,,4,,,,,,,,,,,,0,,2,0,,4,9,,,,,,,,,21,,,7,,,1,,,,,,7,,,,3,20,,0,,,,,21.0,,,,,,,,,,
INNCY248,Herne Hill Road,216.5,1.0,217.5,532053.5994,175739.9842,51.46523238,-0.100374728,POINT (-0.1003747278488861 51.46523238114537),E01003073,Lambeth 014B,6,,,,,,,0,5,,,,,33,,,,,,,,,,1,,,,,,,,,,,,,,,,4,,,,,,,,6,,,,,,,,,,,,1,,0,0,,3,10,,,,,,,,,14,,,9,,,0,,,,,,6,,,,2,36,,0,,,,,15.0,,,,,,,,,,
INNCY249,Munster Road,291.0,33.0,324.0,524190.2847,177323.4909,51.48124206,-0.212956292,POINT (-0.2129562922105485 51.48124206100938),E01001903,Hammersmith and Fulham 019D,4,,,,,,,4,5,,,,,19,,,,,,,,,,1,,,,,,,,,,,,,,,,5,,,,,,,,6,,,,,,,,,,,,0,,1,0,,5,1,,,,,,,,,20,,,16,,,0,,,,,,10,,,,0,19,,1,,,3.0,,9.0,,,,1.0,,,,,,
INNCY250,Queens Road,130.0,0.5,130.5,525951.5781,171102.3317,51.42494317,-0.189818747,POINT (-0.1898187468375092 51.42494317406552),E01003454,Merton 003B,14,,,,,,,4,8,,,,,17,,,,,,,,,,0,,,,,,,,,,,,,,,,0,,,,,,,,0,,,,,,,,,,,,0,,1,1,,5,3,,,,,,,,,16,,,7,,,0,,,,,,3,,,,1,18,,0,,,3.0,,8.0,,,,,,,,,,
INNCY251,Hamilton Terrace,306.0,14.5,320.5,526466.2761,182582.1956,51.52799778,-0.178314127,POINT (-0.1783141270881821 51.52799777525322),E01004726,Westminster 003C,5,,,,,,,6,3,,,,,26,,,,,,,,,,1,,,,,,,,,,,,,,,,3,,,,,,,,3,,,,,,,,,,,,1,,0,1,,8,5,,,,,,,,,30,,,13,,,0,,,,,,15,,,,2,32,,0,,,2.0,,31.0,1.0,,,1.0,,,,,,
INNCY251,Hamilton Terrace,306.0,14.5,320.5,526466.2761,182582.1956,51.52799778,-0.178314127,POINT (-0.1783141270881821 51.52799777525322),E01004726,Westminster 003C,5,,,,,,,6,3,,,,,26,,,,,,,,,,1,,,,,,,,,,,,,,,,3,,,,,,,,3,,,,,,,,,,,,1,,0,1,,8,5,,,,,,,,,30,,,13,,,0,,,,,,15,,,,2,32,,0,,,2.0,,31.0,1.0,,,1.0,,,,,,
INNCY252,Derry Street,116.5,92.0,208.5,525663.7595,179543.0156,51.50086379,-0.190959011,POINT (-0.1909590105993546 51.50086379419003),E01002889,Kensington and Chelsea 010B,17,,,,,,,13,25,,,,,31,,,,,,,,,,1,,,,,,,,,,,,,,,,12,,,,,,,,6,,,,,,,,,,,,1,,2,1,,5,8,,,,,,,,,55,,,18,,,2,,,,,,9,,,,0,27,,3,,,9.0,,9.0,6.0,,,,,1.0,,,,
INNCY253,Coningham Road,173.5,0.5,174.0,522567.7885,180046.9014,51.50607149,-0.235364591,POINT (-0.2353645909867478 51.50607148756073),E01001860,Hammersmith and Fulham 006B,7,,,,,,,6,8,,,,,30,,,,,,,,,,1,,,,,,,,,,,,,,,,2,,,,,,,,8,,,,,,,,,,,,1,,0,1,,4,1,,,,,,,,,45,,,16,,,0,,,,,,16,,,,3,35,,0,,,2.0,,22.0,,,,,,1.0,,,,
INNCY254,Fellows Road,175.0,4.5,179.5,527612.9909,184480.1024,51.5447961,-0.161105434,POINT (-0.161105433661307 51.544796102482806),E01000845,Camden 014B,5,,,,,,,2,2,,,,,28,,,,,,,,,,0,,,,,,,,,,,,,,,,3,,,,,,,,5,,,,,,,,,,,,1,,2,0,,1,5,,,,,,,,,27,,,12,,,1,,,,,,8,,,,1,30,,0,,,,,29.0,,,,1.0,,,,,,
INNCY255,Addison Avenue,153.5,13.0,166.5,524187.267,180078.1524,51.50599913,-0.212031352,POINT (-0.2120313522652608 51.50599912708304),E01002873,Kensington and Chelsea 007C,3,,,,,,,3,10,,,,,27,,,,,,,,,,0,,,,,,,,,,,,,,,,7,,,,,,,,4,,,,,,,,,,,,2,,2,1,,11,14,,,,,,,,,33,,,15,,,5,,,,,,12,,,,2,32,,0,,,,,28.0,,,,1.0,,,,,,
INNCY256,Lowndes Street,612.5,164.5,777.0,527978.3461,179378.9926,51.49887093,-0.157690662,POINT (-0.1576906615908101 51.498870925723736),E01002818,Kensington and Chelsea 012A,11,,,,,,,13,33,,,,,32,,,,,,,,,,0,,,,,,,,,,,,,,,,5,,,,,,,,4,,,,,,,,,,,,1,,2,4,,12,20,,,,,,,,,60,,,17,,,4,,,,,,8,,,,1,31,,0,,,3.0,1.0,23.0,,,,,1.0,,,,,
INNCY256,Lowndes Street,612.5,164.5,777.0,527978.3461,179378.9926,51.49887093,-0.157690662,POINT (-0.1576906615908101 51.498870925723736),E01002818,Kensington and Chelsea 012A,11,,,,,,,13,33,,,,,32,,,,,,,,,,0,,,,,,,,,,,,,,,,5,,,,,,,,4,,,,,,,,,,,,1,,2,4,,12,20,,,,,,,,,60,,,17,,,4,,,,,,8,,,,1,31,,0,,,3.0,1.0,23.0,,,,,1.0,,,,,
INNCY257,Marloes Road,180.5,53.0,233.5,525592.349,178907.2276,51.49516583,-0.192213361,POINT (-0.1922133605563652 51.49516583174108),E01002812,Kensington and Chelsea 013A,13,,,,,,,17,17,,,,,35,,,,,,,,,,0,,,,,,,,,,,,,,,,10,,,,,,,,8,,,,,,,,,,,,0,,1,0,,7,11,,,,,,,,,60,,,18,,,3,,,,,,17,,,,5,32,,3,,,1.0,,21.0,3.0,,,1.0,,,,,,
INNCY258,Addison Gardens,668.5,75.0,743.5,523985.8813,179644.9564,51.50215013,-0.215083646,POINT (-0.2150836459416212 51.50215013121544),E01002866,Kensington and Chelsea 009B,8,,,,,,,7,16,,,,,36,,,,,,,,,,0,,,,,,,,,,,,,,,,8,,,,,,,,7,,,,,,,,,,,,2,,0,1,,2,15,,,,,,,,,57,,,17,,,7,,,,,,16,,,,3,39,,0,,,1.0,,18.0,1.0,1.0,,1.0,,1.0,,,,
INNCY259,Maitland Park Road,99.5,6.0,105.5,527966.8359,184667.7587,51.54640247,-0.155937343,POINT (-0.1559373434916754 51.54640247159237),E01000902,Camden 012B,7,,,,,,,2,15,,,,,35,,,,,,,,,,0,,,,,,,,,,,,,,,,4,,,,,,,,5,,,,,,,,,,,,1,,1,1,,3,5,,,,,,,,,40,,,14,,,4,,,,,,10,,,,3,36,,0,,,,,10.0,,,,,,,,,,
INNCY260,Northwood Road,40.0,0.0,40.0,528991.3755,187828.9638,51.57457802,-0.140011655,POINT (-0.1400116551426845 51.57457802228983),E01002006,Haringey 035B,7,,,,,,,1,5,,,,,35,,,,,,,,,,1,,,,,,,,,,,,,,,,0,,,,,,,,2,,,,,,,,,,,,0,,1,0,,1,1,,,,,,,,,16,,,13,,,0,,,,,,2,,,,1,31,,0,,,,,25.0,,,,,,,,,,
INNCY261,Lyncroft Gardens,11.5,0.0,11.5,525454.7472,185460.5717,51.55409094,-0.191863018,POINT (-0.1918630176624884 51.55409093697959),E01000874,Camden 005D,14,,,,,,,4,8,,,,,31,,,,,,,,,,0,,,,,,,,,,,,,,,,6,,,,,,,,4,,,,,,,,,,,,1,,0,1,,2,4,,,,,,,,,32,,,8,,,3,,,,,,7,,,,2,35,,0,,,2.0,,31.0,,,,2.0,,,,,,
INNCY262,Wakeman Road,48.0,1.5,49.5,523361.5736,182732.3827,51.53003366,-0.222994076,POINT (-0.2229940758866847 51.53003365635367),E01000579,Brent 032A,4,,,,,,,3,5,,,,,24,,,,,,,,,,0,,,,,,,,,,,,,,,,5,,,,,,,,3,,,,,,,,,,,,0,,1,2,,4,2,,,,,,,,,26,,,4,,,0,,,,,,7,,,,2,29,,1,,,1.0,1.0,25.0,,,,1.0,,,,,,
INNCY263,Brackenbury Road,353.5,7.0,360.5,522776.7102,179470.0565,51.50084197,-0.23255646,POINT (-0.2325564595000364 51.50084197418491),E01001928,Hammersmith and Fulham 011A,17,,,,,,,9,13,,,,,18,,,,,,,,,,0,,,,,,,,,,,,,,,,4,,,,,,,,6,,,,,,,,,,,,0,,0,2,,5,4,,,,,,,,,52,,,16,,,2,,,,,,16,,,,2,28,,0,,,1.0,,38.0,1.0,,,1.0,,,,,,
INNCY264,Boltons Place,94.0,19.5,113.5,526055.8452,178390.0756,51.49041515,-0.185724743,POINT (-0.1857247434173043 51.49041514872317),E01002898,Kensington and Chelsea 017E,9,,,,,,,11,26,,,,,39,,,,,,,,,,0,,,,,,,,,,,,,,,,9,,,,,,,,5,,,,,,,,,,,,3,,2,2,,5,9,,,,,,,,,60,,,19,,,3,,,,,,19,,,,4,47,,2,,,6.0,,15.0,2.0,,,1.0,,,,,,
INNCY265,Croftdown Road,124.0,1.5,125.5,528667.6002,186282.9963,51.56075888,-0.145246689,POINT (-0.1452466889768847 51.56075888405998),E01000909,Camden 001C,5,,,,,,,2,6,,,,,40,,,,,,,,,,0,,,,,,,,,,,,,,,,4,,,,,,,,3,,,,,,,,,,,,1,,0,3,,3,7,,,,,,,,,0,,,11,,,1,,,,,,10,,,,2,39,,1,,,1.0,,13.0,,,,,,,,,,
INNCY266,Trussley Road,398.5,20.0,418.5,523238.3676,179250.9092,51.4987721,-0.225985291,POINT (-0.2259852912579735 51.4987720952727),E01001869,Hammersmith and Fulham 010D,17,,,,,,,15,25,,,,,51,,,,,,,,,,1,,,,,,,,,,,,,,,,14,,,,,,,,7,,,,,,,,,,,,1,,0,3,,1,9,,,,,,,,,54,,,28,,,4,,,,,,16,,,,5,34,,0,,,,,21.0,,,,2.0,,,,,,
INNCY267,Malvern Road,43.5,1.5,45.0,525008.0875,182937.414,51.53151449,-0.1991975,POINT (-0.1991975000434928 51.53151449466235),E01000544,Brent 034A,8,,,,,,,4,5,,,,,34,,,,,,,,,,0,,,,,,,,,,,,,,,,11,,,,,,,,4,,,,,,,,,,,,0,,0,0,,11,3,,,,,,,,,24,,,20,,,1,,,,,,12,,,,4,39,,1,,,,,23.0,,,,2.0,,,,,,
INNCY268,The Approach,51.5,0.0,51.5,520965.262,181134.3601,51.51618975,-0.258070435,POINT (-0.2580704353618962 51.51618974920648),E01001238,Ealing 015B,5,,,,,,,3,1,,,,,34,,,,,,,,,,0,,,,,,,,,,,,,,,,2,,,,,,,,2,,,,,,,,,,,,0,,1,0,,2,0,,,,,,,,,13,,,8,,,0,,,,,,6,,,,1,32,,0,,,1.0,,15.0,,,,2.0,,,,,,
INNCY269,York Gate,189.5,29.0,218.5,528259.9561,182116.409,51.5234077,-0.152641056,POINT (-0.1526410556969884 51.52340769686856),E01004716,Westminster 011C,46,,,,,,,10,24,,,,,31,,,,,,,,,,1,,,,,,,,,,,,,,,,0,,,,,,,,10,,,,,,,,,,,,2,,8,1,,17,14,,,,,,,,,60,,,19,,,2,,,,,,11,,,,3,33,,6,,,20.0,,25.0,,,,1.0,1.0,,1.0,,,
INNCY270,Kensal Road,177.5,4.5,182.0,524064.7536,182331.8273,51.52627993,-0.213003168,POINT (-0.213003167545981 51.52627993170812),E01002852,Kensington and Chelsea 001A,7,,,,,,,2,4,,,,,31,,,,,,,,,,0,,,,,,,,,,,,,,,,7,,,,,,,,2,,,,,,,,,,,,0,,2,3,,8,2,,,,,,,,,23,,,19,,,1,,,,,,9,,,,0,37,,1,,,1.0,2.0,29.0,1.0,,,1.0,,,,,,
INNCY271,Park Village East,44.5,4.5,49.0,529002.6877,183062.2582,51.53173875,-0.141595205,POINT (-0.1415952046402052 51.53173874916948),E01000949,Camden 023C,6,,,,,,,6,12,,,,,32,,,,,,,,,,0,,,,,,,,,,,,,,,,7,,,,,,,,4,,,,,,,,,,,,0,,3,3,,5,8,,,,,,,,,38,,,12,,,0,,,,,,14,,,,2,34,,0,,,2.0,,14.0,,,,4.0,,,,,,
INNCY272,Dalmeny Road,233.5,4.0,237.5,529754.2085,185729.6747,51.55553772,-0.129784318,POINT (-0.1297843175671022 51.55553772341363),E01002789,Islington 008D,4,,,,,,,4,7,,,,,30,,,,,,,,,,0,,,,,,,,,,,,,,,,2,,,,,,,,3,,,,,,,,,,,,3,,1,0,,7,2,,,,,,,,,13,,,11,,,0,,,,,,8,,,,2,37,,0,,,,,43.0,,,,,,,,,,
INNCY273,Northchurch Road,304.5,7.5,312.0,532789.9411,184311.7106,51.54208963,-0.08655679,POINT (-0.0865567896029379 51.54208963357655),E01002718,Islington 014B,6,,,,,,,6,7,,,,,36,,,,,,,,,,0,,,,,,,,,,,,,,,,8,,,,,,,,2,,,,,,,,,,,,0,,0,1,,9,7,,,,,,,,,31,,,13,,,1,,,,,,13,,,,3,37,,0,,,6.0,1.0,14.0,,,,1.0,,,,,,
INNCY274,Churchill Place,303.5,8.5,312.0,537939.9547,180244.6548,51.50430898,-0.013931362,POINT (-0.0139313622154847 51.5043089828399),E01032780,Tower Hamlets 028I,49,,,,,,,32,27,,,,,32,,,,,,,,,,1,,,,,,,,,,,,,,,,12,,,,,,,,2,,,,,,,,,,,,2,,1,2,,6,22,,,,,,,,,60,,,8,,,9,,,,,,8,,,,10,35,,6,,,2.0,,,,,,,,,,,,
INNCY275,Highbury Hill,56.0,1.5,57.5,531439.936,186056.1812,51.55808198,-0.105361209,POINT (-0.105361208745086 51.55808198086495),E01033494,Islington 006G,7,,,,,,,7,11,,,,,29,,,,,,,,,,0,,,,,,,,,,,,,,,,8,,,,,,,,5,,,,,,,,,,,,0,,2,1,,5,9,,,,,,,,,56,,,13,,,3,,,,,,15,,,,6,27,,2,,,,,39.0,,,,,,,,,,
INNCY276,Hanbury Street,300.5,50.5,351.0,534071.372,181882.306,51.5199556,-0.069013778,POINT (-0.069013778411731 51.5199556035582),E01004309,Tower Hamlets 015D,20,,,,,,,16,53,,,,,45,,,,,,,,,,4,,,,,,,,,,,,,,,,17,,,,,,,,6,,,,,,,,,,,,5,,2,9,,8,17,,,,,,,,,60,,,36,,,8,,,,,,22,,,,6,45,,9,,,,,2.0,,,,,,,,,,
INNCY277,Hassett Road,121.5,2.5,124.0,536190.0559,184867.3015,51.54627279,-0.037342715,POINT (-0.0373427146018129 51.54627279043033),E01001848,Hackney 018C,3,,,,,,,1,5,,,,,40,,,,,,,,,,0,,,,,,,,,,,,,,,,2,,,,,,,,3,,,,,,,,,,,,1,,0,0,,4,3,,,,,,,,,19,,,8,,,0,,,,,,11,,,,1,37,,0,,,2.0,,19.0,1.0,,,,,,,,,
INNCY278,Wolseley Street,201.5,2.5,204.0,534020.6814,179714.5465,51.50048739,-0.070567162,POINT (-0.0705671622035184 51.50048738961655),E01032638,Southwark 003G,6,,,,,,,6,11,,,,,31,,,,,,,,,,12,,,,,,,,,,,,,,,,6,,,,,,,,5,,,,,,,,,,,,1,,1,1,,5,10,,,,,,,,,30,,,10,,,1,,,,,,11,,,,1,0,,0,,,4.0,,15.0,1.0,,,,,,,,2.0,
INNCY278,Wolseley Street,201.5,2.5,204.0,534020.6814,179714.5465,51.50048739,-0.070567162,POINT (-0.0705671622035184 51.50048738961655),E01032638,Southwark 003G,6,,,,,,,6,11,,,,,31,,,,,,,,,,12,,,,,,,,,,,,,,,,6,,,,,,,,5,,,,,,,,,,,,1,,1,1,,5,10,,,,,,,,,30,,,10,,,1,,,,,,11,,,,1,0,,0,,,4.0,,15.0,1.0,,,,,,,,2.0,
INNCY279,Newell Street,104.5,8.5,113.0,536747.6117,180886.4311,51.51036557,-0.030851234,POINT (-0.0308512337217148 51.51036557165644),E01004258,Tower Hamlets 023D,6,,,,,,,7,11,,,,,24,,,,,,,,,,1,,,,,,,,,,,,,,,,11,,,,,,,,7,,,,,,,,,,,,1,,3,0,,8,8,,,,,,,,,38,,,9,,,3,,,,,,0,,,,4,30,,1,,,,,11.0,,,,,,,,,,
INNCY280,Rotherhithe Street,73.5,1.5,75.0,536511.1021,179595.6805,51.49882382,-0.034756316,POINT (-0.0347563160654631 51.498823815044446),E01004056,Southwark 008A,4,,,,,,,3,4,,,,,18,,,,,,,,,,0,,,,,,,,,,,,,,,,4,,,,,,,,3,,,,,,,,,,,,1,,1,0,,7,2,,,,,,,,,12,,,6,,,0,,,,,,4,,,,0,17,,0,,,,,5.0,,,,,,,,,,
INNCY281,Three Mill Lane,260.5,7.0,267.5,538238.599,182796.9342,51.52717088,-0.008631152,POINT (-0.0086311519064612 51.52717088182421),E01004238,Tower Hamlets 008D,5,,,,,,,3,0,,,,,22,,,,,,,,,,0,,,,,,,,,,,,,,,,3,,,,,,,,0,,,,,,,,,,,,0,,2,4,,3,0,,,,,,,,,4,,,8,,,0,,,,,,1,,,,3,20,,1,,,,,,,,,,,,,,1.0,
INNCY282,Ottaway Street,56.0,1.5,57.5,534237.3451,186088.582,51.55771498,-0.065020473,POINT (-0.0650204733105157 51.55771498123013),E01001764,Hackney 010A,3,,,,,,,4,16,,,,,39,,,,,,,,,,0,,,,,,,,,,,,,,,,5,,,,,,,,3,,,,,,,,,,,,0,,0,2,,3,0,,,,,,,,,34,,,15,,,0,,,,,,20,,,,3,35,,0,,,,,17.0,,,,,,,,,,
INNCY283,Lagado Mews,46.0,0.5,46.5,535791.0,180212.0,51.50453548,-0.044886866,POINT (-0.0448868663450242 51.50453548498921),E01004053,Southwark 001C,1,,,,,,,1,5,,,,,25,,,,,,,,,,0,,,,,,,,,,,,,,,,3,,,,,,,,3,,,,,,,,,,,,0,,1,0,,9,3,,,,,,,,,14,,,9,,,0,,,,,,2,,,,3,19,,0,,,,,15.0,,,,,,,,,,
INNCY284,Goldington Crescent,51.5,5.5,57.0,529647.0722,183435.4414,51.53494495,-0.132173304,POINT (-0.1321733038184271 51.53494495098479),E01000958,Camden 019D,14,,,,,,,0,27,,,,,39,,,,,,,,,,2,,,,,,,,,,,,,,,,6,,,,,,,,4,,,,,,,,,,,,2,,4,2,,6,10,,,,,,,,,60,,,13,,,4,,,,,,12,,,,5,39,,1,,,,,16.0,,,,3.0,,,,,,
INNCY285,Vartry Road,154.0,2.5,156.5,533177.1704,188073.0039,51.57579867,-0.079552916,POINT (-0.0795529157322463 51.57579867404284),E01002056,Haringey 032C,7,,,,,,,4,2,,,,,40,,,,,,,,,,0,,,,,,,,,,,,,,,,1,,,,,,,,3,,,,,,,,,,,,0,,0,1,,3,0,,,,,,,,,11,,,20,,,0,,,,,,12,,,,2,40,,0,,,1.0,,19.0,,,,2.0,,,,,,
INNCY286,Downs Park Road,229.5,5.5,235.0,534668.3309,185528.2923,51.55257747,-0.059021693,POINT (-0.0590216926850348 51.55257746538495),E01033713,Hackney 010G,5,,,,,,,6,9,,,,,34,,,,,,,,,,0,,,,,,,,,,,,,,,,2,,,,,,,,4,,,,,,,,,,,,0,,0,1,,2,4,,,,,,,,,43,,,18,,,0,,,,,,13,,,,5,51,,0,,,1.0,,4.0,1.0,,,,,,,,,
INNCY287,Mastmaker Road,110.0,13.5,123.5,537464.4373,179820.956,51.50061734,-0.020943256,POINT (-0.0209432555984851 51.50061734279874),E01032771,Tower Hamlets 033B,56,,,,,,,38,29,,,,,34,,,,,,,,,,0,,,,,,,,,,,,,,,,11,,,,,,,,7,,,,,,,,,,,,1,,0,2,,5,21,,,,,,,,,60,,,11,,,8,,,,,,10,,,,7,32,,3,,,1.0,,9.0,,,,,,,,,,
INNCY288,Kerbey Street,54.0,4.5,58.5,537780.5117,181169.43,51.51265792,-0.015866149,POINT (-0.0158661486403552 51.51265792358206),E01004244,Tower Hamlets 020B,3,,,,,,,5,5,,,,,37,,,,,,,,,,1,,,,,,,,,,,,,,,,10,,,,,,,,2,,,,,,,,,,,,2,,2,0,,8,7,,,,,,,,,31,,,14,,,0,,,,,,9,,,,7,35,,1,,,1.0,,13.0,,,,2.0,,,,,,
INNCY289,Pendennis Road,106.0,0.5,106.5,530198.6503,171993.4766,51.43199288,-0.128440027,POINT (-0.12844002651858 51.43199287637698),E01003153,Lambeth 029D,14,,,,,,,9,9,,,,,35,,,,,,,,,,0,,,,,,,,,,,,,,,,7,,,,,,,,5,,,,,,,,,,,,1,,0,0,,2,9,,,,,,,,,48,,,11,,,0,,,,,,10,,,,4,49,,0,,,1.0,,21.0,,,,,,,,,,
INNCY290,Aldebert Terrace,345.0,26.5,371.5,530501.8295,177040.6119,51.47728032,-0.122220846,POINT (-0.1222208461969241 51.47728031783947),E01003129,Lambeth 004E,3,,,,,,,6,8,,,,,37,,,,,,,,,,0,,,,,,,,,,,,,,,,7,,,,,,,,6,,,,,,,,,,,,0,,0,1,,5,14,,,,,,,,,37,,,11,,,0,,,,,,11,,,,3,40,,0,,,,,21.0,,,,1.0,,,,,,
INNCY290,Aldebert Terrace,345.0,26.5,371.5,530501.8295,177040.6119,51.47728032,-0.122220846,POINT (-0.1222208461969241 51.47728031783947),E01003129,Lambeth 004E,3,,,,,,,6,8,,,,,37,,,,,,,,,,0,,,,,,,,,,,,,,,,7,,,,,,,,6,,,,,,,,,,,,0,,0,1,,5,14,,,,,,,,,37,,,11,,,0,,,,,,11,,,,3,40,,0,,,,,21.0,,,,1.0,,,,,,
INNCY291,Leigham Vale,197.5,0.0,197.5,530932.535,172268.178,51.43429259,-0.1177875,POINT (-0.1177875000091493 51.43429258856593),E01003152,Lambeth 027E,6,,,,,,,5,9,,,,,19,,,,,,,,,,0,,,,,,,,,,,,,,,,4,,,,,,,,2,,,,,,,,,,,,0,,0,1,,2,14,,,,,,,,,17,,,9,,,0,,,,,,7,,,,2,17,,0,,,,,16.0,,,,,,,,,,
INNCY292,Brayards Road,231.5,0.5,232.0,534762.8193,176242.8203,51.46911302,-0.061205585,POINT (-0.0612055846773131 51.46911301503178),E01004005,Southwark 023D,6,,,,,,,11,30,,,,,44,,,,,,,,,,0,,,,,,,,,,,,,,,,5,,,,,,,,5,,,,,,,,,,,,3,,1,1,,3,2,,,,,,,,,56,,,10,,,3,,,,,,16,,,,6,38,,0,,,,,28.0,,,,2.0,,,,,,
INNCY293,Breakspears Road,44.0,0.0,44.0,537067.4541,176009.3971,51.4664624,-0.028137056,POINT (-0.0281370561347914 51.46646239678753),E01003211,Lewisham 008B,8,,,,,,,3,5,,,,,36,,,,,,,,,,0,,,,,,,,,,,,,,,,0,,,,,,,,4,,,,,,,,,,,,0,,0,0,,2,1,,,,,,,,,17,,,5,,,0,,,,,,7,,,,3,37,,0,,,3.0,,15.0,,,,,,,,,,
INNCY294,Crystal Palace Park (Sydenham),47.0,1.0,48.0,534728.0252,171083.857,51.42276077,-0.063668427,POINT (-0.0636684266995097 51.42276076675688),E01000745,Bromley 005D,3,,,,,,,3,4,,,,,29,,,,,,,,,,0,,,,,,,,,,,,,,,,5,,,,,,,,2,,,,,,,,,,,,0,,2,0,,5,10,,,,,,,,,9,,,7,,,0,,,,,,5,,,,6,20,,0,,,,,,,,,,,,,,,
INNCY295,John Ruskin Street,245.0,26.0,271.0,531775.188,177388.193,51.48010897,-0.103766224,POINT (-0.1037662239526592 51.480108974239215),E01003926,Southwark 021F,5,,,,,,,4,5,,,,,40,,,,,,,,,,0,,,,,,,,,,,,,,,,4,,,,,,,,6,,,,,,,,,,,,0,,0,0,,7,9,,,,,,,,,20,,,15,,,0,,,,,,11,,,,1,52,,0,,,1.0,,14.0,,,,,,,,,,
INNCY295,John Ruskin Street,245.0,26.0,271.0,531775.188,177388.193,51.48010897,-0.103766224,POINT (-0.1037662239526592 51.480108974239215),E01003926,Southwark 021F,5,,,,,,,4,5,,,,,40,,,,,,,,,,0,,,,,,,,,,,,,,,,4,,,,,,,,6,,,,,,,,,,,,0,,0,0,,7,9,,,,,,,,,20,,,15,,,0,,,,,,11,,,,1,52,,2,,,1.0,,14.0,,,,,,,,,,
INNCY296,Fawnbrake Avenue,83.0,1.0,84.0,531928.9094,174814.5091,51.45694457,-0.10251367,POINT (-0.1025136700490296 51.456944570662685),E01003073,Lambeth 014B,3,,,,,,,1,17,,,,,31,,,,,,,,,,0,,,,,,,,,,,,,,,,4,,,,,,,,1,,,,,,,,,,,,0,,0,1,,3,6,,,,,,,,,49,,,11,,,1,,,,,,10,,,,1,33,,0,,,1.0,,24.0,,,,,,,,,,
INNCY297,McNeil Road,208.5,0.0,208.5,533104.8035,176239.6612,51.4694767,-0.085062869,POINT (-0.085062868793319 51.46947669696099),E01003915,Southwark 024C,8,,,,,,,6,8,,,,,30,,,,,,,,,,0,,,,,,,,,,,,,,,,3,,,,,,,,4,,,,,,,,,,,,0,,0,0,,8,5,,,,,,,,,37,,,10,,,0,,,,,,10,,,,1,34,,2,,,,,18.0,,,,,,,,,,
INNCY298,Dulwich Park (Court Lane Gate),360.0,1.0,361.0,533669.1779,173835.8493,51.44774202,-0.077850164,POINT (-0.0778501635064409 51.44774201971807),E01004075,Southwark 031E,5,,,,,,,2,1,,,,,31,,,,,,,,,,0,,,,,,,,,,,,,,,,0,,,,,,,,1,,,,,,,,,,,,0,,0,0,,1,0,,,,,,,,,8,,,6,,,0,,,,,,3,,,,2,0,,0,,,,,,,,,,,,,,1.0,
INNCY299,Leander Road,91.5,0.5,92.0,530955.7118,174468.5282,51.4540611,-0.116640894,POINT (-0.1166408935094612 51.45406110376313),E01003178,Lambeth 020E,7,,,,,,,5,7,,,,,28,,,,,,,,,,0,,,,,,,,,,,,,,,,3,,,,,,,,5,,,,,,,,,,,,0,,1,1,,6,10,,,,,,,,,18,,,9,,,0,,,,,,0,,,,0,17,,0,,,1.0,,27.0,,,,1.0,,,,,,
INNCY300,Elmira Street,342.5,0.0,342.5,537889.2805,175564.3445,51.46226364,-0.016486891,POINT (-0.016486890773646 51.46226363531632),E01003296,Lewisham 012E,19,,,,,,,9,6,,,,,50,,,,,,,,,,0,,,,,,,,,,,,,,,,4,,,,,,,,4,,,,,,,,,,,,0,,2,0,,2,5,,,,,,,,,27,,,8,,,2,,,,,,14,,,,5,55,,0,,,,,5.0,,,,,,,,,,
INNCY301,Bellenden Road,309.5,0.0,309.5,534046.0597,176655.4921,51.47299154,-0.071362108,POINT (-0.0713621080387356 51.47299154156917),E01004067,Southwark 022E,6,,,,,,,11,23,,,,,32,,,,,,,,,,0,,,,,,,,,,,,,,,,8,,,,,,,,4,,,,,,,,,,,,3,,0,1,,7,4,,,,,,,,,55,,,13,,,4,,,,,,14,,,,2,36,,0,,,1.0,,6.0,,,,,,,,,,
INNCY302,Lambert Road,274.5,0.5,275.0,530339.8552,174664.9519,51.45596829,-0.125427042,POINT (-0.1254270420948706 51.4559682885585),E01003018,Lambeth 020A,6,,,,,,,8,5,,,,,33,,,,,,,,,,1,,,,,,,,,,,,,,,,5,,,,,,,,6,,,,,,,,,,,,2,,1,5,,1,8,,,,,,,,,16,,,15,,,0,,,,,,10,,,,0,33,,0,,,,1.0,21.0,,,,,,,,,,
INNCY303,Spa Road,168.0,2.0,170.0,534123.992,179234.284,51.4961471,-0.069262082,POINT (-0.069262081626689 51.4961470967229),E01003977,Southwark 010A,0,,,,,,,5,8,,,,,30,,,,,,,,,,2,,,,,,,,,,,,,,,,5,,,,,,,,5,,,,,,,,,,,,0,,0,0,,2,11,,,,,,,,,15,,,16,,,0,,,,,,13,,,,1,37,,0,,,1.0,,20.0,,,,1.0,,,,,,
INNCY304,Lots Road,755.5,69.0,824.5,526281.9165,176981.6088,51.47770691,-0.182973458,POINT (-0.1829734577353492 51.47770691444753),E01002841,Kensington and Chelsea 021B,7,,,,,,,4,17,,,,,31,,,,,,,,,,0,,,,,,,,,,,,,,,,6,,,,,,,,5,,,,,,,,,,,,1,,2,1,,3,0,,,,,,,,,27,,,13,,,0,,,,,,8,,,,1,37,,0,,,1.0,,12.0,,,1.0,,,,,,,
